[
  {
    "locId": "L905773",
    "name": "13 Mile Rd & Berrigan Ave (flooded field)",
    "lat": 43.1604272,
    "lng": -85.4803598,
    "numSpecies": 102,
    "latestObs": "2025-10-25 21:41",
    "knowledge": null,
    "parking": null,
    "hours": null,
    "fee": null,
    "features": [],
    "habitats": [],
    "tips": [],
    "links": [],
    "lastUpdated": null,
    "howToBird": null
  },
  {
    "locId": "L1191526",
    "name": "17 Mile Rd marshes",
    "lat": 43.2185471,
    "lng": -85.5204964,
    "numSpecies": 96,
    "latestObs": "2025-12-17 16:42",
    "knowledge": null,
    "parking": null,
    "hours": null,
    "fee": null,
    "features": [],
    "habitats": [],
    "tips": [],
    "links": [],
    "lastUpdated": null,
    "howToBird": null
  },
  {
    "locId": "L29928681",
    "name": "52nd St. SE, fields",
    "lat": 42.8695154,
    "lng": -85.5209579,
    "numSpecies": 132,
    "latestObs": "2026-03-16 09:12",
    "knowledge": null,
    "parking": null,
    "hours": null,
    "fee": null,
    "features": [],
    "habitats": [],
    "tips": [],
    "links": [],
    "lastUpdated": null,
    "howToBird": null
  },
  {
    "locId": "L2793903",
    "name": "60th and Segwun wetland reclamation (no entry)",
    "lat": 42.858273,
    "lng": -85.349756,
    "numSpecies": 63,
    "latestObs": "2024-06-19 09:19",
    "knowledge": null,
    "parking": null,
    "hours": null,
    "fee": null,
    "features": [],
    "habitats": [],
    "tips": [],
    "links": [],
    "lastUpdated": null,
    "howToBird": null
  },
  {
    "locId": "L1006734",
    "name": "84th and Wilson (celery flats)",
    "lat": 42.8101238,
    "lng": -85.7645831,
    "numSpecies": 67,
    "latestObs": "2025-06-12 10:34",
    "knowledge": null,
    "parking": null,
    "hours": null,
    "fee": null,
    "features": [],
    "habitats": [],
    "tips": [],
    "links": [],
    "lastUpdated": null,
    "howToBird": null
  },
  {
    "locId": "L3549409",
    "name": "92nd St. flooded field",
    "lat": 42.7988724,
    "lng": -85.6060722,
    "numSpecies": 100,
    "latestObs": "2026-03-08 12:08",
    "knowledge": null,
    "parking": null,
    "hours": null,
    "fee": null,
    "features": [],
    "habitats": [],
    "tips": [],
    "links": [],
    "lastUpdated": null,
    "howToBird": null
  },
  {
    "locId": "L4355136",
    "name": "92nd and Patterson (flooded field)",
    "lat": 42.795136,
    "lng": -85.5434832,
    "numSpecies": 123,
    "latestObs": "2026-03-10 16:13",
    "knowledge": null,
    "parking": null,
    "hours": null,
    "fee": null,
    "features": [],
    "habitats": [],
    "tips": [],
    "links": [],
    "lastUpdated": null,
    "howToBird": null
  },
  {
    "locId": "L1367271",
    "name": "Ada Cemetery",
    "lat": 42.9623349,
    "lng": -85.5046368,
    "numSpecies": 17,
    "latestObs": "2024-02-22 12:06",
    "knowledge": null,
    "parking": null,
    "hours": null,
    "fee": null,
    "features": [],
    "habitats": [],
    "tips": [],
    "links": [],
    "lastUpdated": null,
    "howToBird": null
  },
  {
    "locId": "L9920475",
    "name": "Ada Christian School",
    "lat": 42.9461196,
    "lng": -85.5128682,
    "numSpecies": 35,
    "latestObs": "2026-02-19 17:31",
    "knowledge": null,
    "parking": null,
    "hours": null,
    "fee": null,
    "features": [],
    "habitats": [],
    "tips": [],
    "links": [],
    "lastUpdated": null,
    "howToBird": null
  },
  {
    "locId": "L2700559",
    "name": "Ada Covered Bridge/Leonard Field",
    "lat": 42.95253,
    "lng": -85.4863814,
    "numSpecies": 80,
    "latestObs": "2026-03-12 18:26",
    "knowledge": null,
    "parking": null,
    "hours": null,
    "fee": null,
    "features": [],
    "habitats": [],
    "tips": [],
    "links": [],
    "lastUpdated": null,
    "howToBird": null
  },
  {
    "locId": "L8499355",
    "name": "Ada Downtown Riverfront",
    "lat": 42.953708,
    "lng": -85.483258,
    "numSpecies": 58,
    "latestObs": "2026-01-19 16:55",
    "knowledge": null,
    "parking": null,
    "hours": null,
    "fee": null,
    "features": [],
    "habitats": [],
    "tips": [],
    "links": [],
    "lastUpdated": null,
    "howToBird": null
  },
  {
    "locId": "L1183453",
    "name": "Ada Twp. Park",
    "lat": 42.943418,
    "lng": -85.4779887,
    "numSpecies": 99,
    "latestObs": "2026-02-14 11:10",
    "knowledge": null,
    "parking": null,
    "hours": null,
    "fee": null,
    "features": [],
    "habitats": [],
    "tips": [],
    "links": [],
    "lastUpdated": null,
    "howToBird": null
  },
  {
    "locId": "L611570",
    "name": "Ah Nab Awen Park",
    "lat": 42.9676,
    "lng": -85.67664,
    "numSpecies": 103,
    "latestObs": "2026-02-19 09:48",
    "knowledge": null,
    "parking": null,
    "hours": null,
    "fee": null,
    "features": [],
    "habitats": [],
    "tips": [],
    "links": [],
    "lastUpdated": null,
    "howToBird": null
  },
  {
    "locId": "L11841535",
    "name": "Alger Park",
    "lat": 42.9214569,
    "lng": -85.6431162,
    "numSpecies": 10,
    "latestObs": "2023-04-21 09:30",
    "knowledge": null,
    "parking": null,
    "hours": null,
    "fee": null,
    "features": [],
    "habitats": [],
    "tips": [],
    "links": [],
    "lastUpdated": null,
    "howToBird": null
  },
  {
    "locId": "L5623291",
    "name": "Alger Woods",
    "lat": 42.9207438,
    "lng": -85.6321809,
    "numSpecies": 32,
    "latestObs": "2025-12-19 16:20",
    "knowledge": null,
    "parking": null,
    "hours": null,
    "fee": null,
    "features": [],
    "habitats": [],
    "tips": [],
    "links": [],
    "lastUpdated": null,
    "howToBird": null
  },
  {
    "locId": "L30983128",
    "name": "Annis Fish Hatchery Preserve",
    "lat": 43.1177545,
    "lng": -85.5345096,
    "numSpecies": 53,
    "latestObs": "2026-02-16 15:09",
    "knowledge": null,
    "parking": null,
    "hours": null,
    "fee": null,
    "features": [],
    "habitats": [],
    "tips": [],
    "links": [],
    "lastUpdated": null,
    "howToBird": null
  },
  {
    "locId": "L6354340",
    "name": "Aquinas College",
    "lat": 42.9601035,
    "lng": -85.6295882,
    "numSpecies": 106,
    "latestObs": "2026-02-15 13:43",
    "knowledge": null,
    "parking": null,
    "hours": null,
    "fee": null,
    "features": [],
    "habitats": [],
    "tips": [],
    "links": [],
    "lastUpdated": null,
    "howToBird": null
  },
  {
    "locId": "L6296393",
    "name": "Ball Perkins Park",
    "lat": 42.9918659,
    "lng": -85.6204628,
    "numSpecies": 179,
    "latestObs": "2026-03-12 12:24",
    "knowledge": null,
    "parking": null,
    "hours": null,
    "fee": null,
    "features": [],
    "habitats": [],
    "tips": [],
    "links": [],
    "lastUpdated": null,
    "howToBird": null
  },
  {
    "locId": "L1166436",
    "name": "Bass Lake (Kent Co.)",
    "lat": 43.2679797,
    "lng": -85.3228122,
    "numSpecies": 70,
    "latestObs": "2025-11-08 14:44",
    "knowledge": null,
    "parking": null,
    "hours": null,
    "fee": null,
    "features": [],
    "habitats": [],
    "tips": [],
    "links": [],
    "lastUpdated": null,
    "howToBird": null
  },
  {
    "locId": "L3965532",
    "name": "Battjes Park",
    "lat": 42.9307721,
    "lng": -85.7104933,
    "numSpecies": 54,
    "latestObs": "2026-02-19 09:21",
    "knowledge": null,
    "parking": null,
    "hours": null,
    "fee": null,
    "features": [],
    "habitats": [],
    "tips": [],
    "links": [],
    "lastUpdated": null,
    "howToBird": null
  },
  {
    "locId": "L4459988",
    "name": "Big Crooked Lake",
    "lat": 43.0611133,
    "lng": -85.3913212,
    "numSpecies": 87,
    "latestObs": "2025-12-27 10:12",
    "knowledge": null,
    "parking": null,
    "hours": null,
    "fee": null,
    "features": [],
    "habitats": [],
    "tips": [],
    "links": [],
    "lastUpdated": null,
    "howToBird": null
  },
  {
    "locId": "L485669",
    "name": "Blandford Nature Center",
    "lat": 42.9954863,
    "lng": -85.7390481,
    "numSpecies": 165,
    "latestObs": "2026-03-14 19:54",
    "knowledge": null,
    "parking": null,
    "hours": null,
    "fee": null,
    "features": [],
    "habitats": [],
    "tips": [],
    "links": [],
    "lastUpdated": null,
    "howToBird": null
  },
  {
    "locId": "L1798544",
    "name": "Bostwick Lake Park",
    "lat": 43.085652,
    "lng": -85.4585881,
    "numSpecies": 56,
    "latestObs": "2026-03-16 12:02",
    "knowledge": null,
    "parking": null,
    "hours": null,
    "fee": null,
    "features": [],
    "habitats": [],
    "tips": [],
    "links": [],
    "lastUpdated": null,
    "howToBird": null
  },
  {
    "locId": "L2126882",
    "name": "Boulder Creek Ponds",
    "lat": 43.0619745,
    "lng": -85.5628753,
    "numSpecies": 77,
    "latestObs": "2025-06-13 19:47",
    "knowledge": null,
    "parking": null,
    "hours": null,
    "fee": null,
    "features": [],
    "habitats": [],
    "tips": [],
    "links": [],
    "lastUpdated": null,
    "howToBird": null
  },
  {
    "locId": "L899391",
    "name": "Bradford Dickinson White Nature Preserve",
    "lat": 42.9008405,
    "lng": -85.3601178,
    "numSpecies": 85,
    "latestObs": "2025-11-08 13:59",
    "knowledge": null,
    "parking": null,
    "hours": null,
    "fee": null,
    "features": [],
    "habitats": [],
    "tips": [],
    "links": [],
    "lastUpdated": null,
    "howToBird": null
  },
  {
    "locId": "L854307",
    "name": "Brewer Park",
    "lat": 42.816905,
    "lng": -85.6568384,
    "numSpecies": 112,
    "latestObs": "2026-02-18 13:13",
    "knowledge": null,
    "parking": null,
    "hours": null,
    "fee": null,
    "features": [],
    "habitats": [],
    "tips": [],
    "links": [],
    "lastUpdated": null,
    "howToBird": null
  },
  {
    "locId": "L1217086",
    "name": "Brower Lake Preserve",
    "lat": 43.1223285,
    "lng": -85.4767628,
    "numSpecies": 99,
    "latestObs": "2025-10-15 10:29",
    "knowledge": null,
    "parking": null,
    "hours": null,
    "fee": null,
    "features": [],
    "habitats": [],
    "tips": [],
    "links": [],
    "lastUpdated": null,
    "howToBird": null
  },
  {
    "locId": "L4438820",
    "name": "Buck Creek Nature Trail/Lemery Park",
    "lat": 42.8894869,
    "lng": -85.7123558,
    "numSpecies": 129,
    "latestObs": "2026-03-10 07:30",
    "knowledge": null,
    "parking": null,
    "hours": null,
    "fee": null,
    "features": [],
    "habitats": [],
    "tips": [],
    "links": [],
    "lastUpdated": null,
    "howToBird": null
  },
  {
    "locId": "L8189609",
    "name": "Buck Creek Trail",
    "lat": 42.9027249,
    "lng": -85.7563558,
    "numSpecies": 65,
    "latestObs": "2026-03-01 07:52",
    "knowledge": null,
    "parking": null,
    "hours": null,
    "fee": null,
    "features": [],
    "habitats": [],
    "tips": [],
    "links": [],
    "lastUpdated": null,
    "howToBird": null
  },
  {
    "locId": "L9788763",
    "name": "Burton Park",
    "lat": 42.923324,
    "lng": -85.4981366,
    "numSpecies": 102,
    "latestObs": "2026-03-16 12:43",
    "knowledge": null,
    "parking": null,
    "hours": null,
    "fee": null,
    "features": [],
    "habitats": [],
    "tips": [],
    "links": [],
    "lastUpdated": null,
    "howToBird": null
  },
  {
    "locId": "L1573708",
    "name": "Burton Ridge pond",
    "lat": 42.9260937,
    "lng": -85.582295,
    "numSpecies": 62,
    "latestObs": "2026-03-10 08:22",
    "knowledge": null,
    "parking": null,
    "hours": null,
    "fee": null,
    "features": [],
    "habitats": [],
    "tips": [],
    "links": [],
    "lastUpdated": null,
    "howToBird": null
  },
  {
    "locId": "L988078",
    "name": "Bush Lake",
    "lat": 43.0878836,
    "lng": -85.4217911,
    "numSpecies": 84,
    "latestObs": "2025-06-28 11:41",
    "knowledge": null,
    "parking": null,
    "hours": null,
    "fee": null,
    "features": [],
    "habitats": [],
    "tips": [],
    "links": [],
    "lastUpdated": null,
    "howToBird": null
  },
  {
    "locId": "L4439879",
    "name": "Butterworth Landfill Prairie (Kent Trails)",
    "lat": 42.9538784,
    "lng": -85.6967604,
    "numSpecies": 70,
    "latestObs": "2026-03-06 22:10",
    "knowledge": null,
    "parking": null,
    "hours": null,
    "fee": null,
    "features": [],
    "habitats": [],
    "tips": [],
    "links": [],
    "lastUpdated": null,
    "howToBird": null
  },
  {
    "locId": "L2708499",
    "name": "Byron Lakes",
    "lat": 42.8395619,
    "lng": -85.7122527,
    "numSpecies": 170,
    "latestObs": "2026-03-15 18:25",
    "knowledge": null,
    "parking": null,
    "hours": null,
    "fee": null,
    "features": [],
    "habitats": [],
    "tips": [],
    "links": [],
    "lastUpdated": null,
    "howToBird": null
  },
  {
    "locId": "L4048182",
    "name": "Caledonia Lakeside Park",
    "lat": 42.792103,
    "lng": -85.516077,
    "numSpecies": 127,
    "latestObs": "2026-03-12 15:18",
    "knowledge": null,
    "parking": null,
    "hours": null,
    "fee": null,
    "features": [],
    "habitats": [],
    "tips": [],
    "links": [],
    "lastUpdated": null,
    "howToBird": null
  },
  {
    "locId": "L1159583",
    "name": "Caledonia WWTP (private appt. only- call 616-889-7937)",
    "lat": 42.8064027,
    "lng": -85.5076303,
    "numSpecies": 212,
    "latestObs": "2026-03-06 09:45",
    "knowledge": null,
    "parking": null,
    "hours": null,
    "fee": null,
    "features": [],
    "habitats": [],
    "tips": [],
    "links": [],
    "lastUpdated": null,
    "howToBird": null
  },
  {
    "locId": "L611576",
    "name": "Calvin University Ecosystem Preserve",
    "lat": 42.9326652,
    "lng": -85.5839306,
    "numSpecies": 181,
    "latestObs": "2026-03-14 16:05",
    "knowledge": null,
    "parking": null,
    "hours": null,
    "fee": null,
    "features": [],
    "habitats": [],
    "tips": [],
    "links": [],
    "lastUpdated": null,
    "howToBird": null
  },
  {
    "locId": "L1574301",
    "name": "Calvin University campus",
    "lat": 42.9321158,
    "lng": -85.5872586,
    "numSpecies": 127,
    "latestObs": "2026-03-02 11:39",
    "knowledge": null,
    "parking": null,
    "hours": null,
    "fee": null,
    "features": [],
    "habitats": [],
    "tips": [],
    "links": [],
    "lastUpdated": null,
    "howToBird": null
  },
  {
    "locId": "L2145894",
    "name": "Camp Lake",
    "lat": 43.1710443,
    "lng": -85.6652069,
    "numSpecies": 87,
    "latestObs": "2025-05-10 16:44",
    "knowledge": null,
    "parking": null,
    "hours": null,
    "fee": null,
    "features": [],
    "habitats": [],
    "tips": [],
    "links": [],
    "lastUpdated": null,
    "howToBird": null
  },
  {
    "locId": "L1130547",
    "name": "Campau Lake",
    "lat": 42.8374,
    "lng": -85.4467,
    "numSpecies": 107,
    "latestObs": "2025-04-13 17:35",
    "knowledge": null,
    "parking": null,
    "hours": null,
    "fee": null,
    "features": [],
    "habitats": [],
    "tips": [],
    "links": [],
    "lastUpdated": null,
    "howToBird": null
  },
  {
    "locId": "L1033665",
    "name": "Campbell Lake",
    "lat": 42.8097587,
    "lng": -85.4255676,
    "numSpecies": 79,
    "latestObs": "2026-01-15 14:00",
    "knowledge": null,
    "parking": null,
    "hours": null,
    "fee": null,
    "features": [],
    "habitats": [],
    "tips": [],
    "links": [],
    "lastUpdated": null,
    "howToBird": null
  },
  {
    "locId": "L33956117",
    "name": "Cannon Trail North Trailhead",
    "lat": 43.0850628,
    "lng": -85.4986095,
    "numSpecies": 21,
    "latestObs": "2025-07-28 18:39",
    "knowledge": null,
    "parking": null,
    "hours": null,
    "fee": null,
    "features": [],
    "habitats": [],
    "tips": [],
    "links": [],
    "lastUpdated": null,
    "howToBird": null
  },
  {
    "locId": "L1156391",
    "name": "Cannon Twp. Trail (north section)",
    "lat": 43.0788685,
    "lng": -85.4876634,
    "numSpecies": 154,
    "latestObs": "2026-03-18 07:57",
    "knowledge": null,
    "parking": null,
    "hours": null,
    "fee": null,
    "features": [],
    "habitats": [],
    "tips": [],
    "links": [],
    "lastUpdated": null,
    "howToBird": null
  },
  {
    "locId": "L11617833",
    "name": "Cannon Twp. Trail (south section)",
    "lat": 43.0647768,
    "lng": -85.4786626,
    "numSpecies": 90,
    "latestObs": "2025-12-23 10:30",
    "knowledge": null,
    "parking": null,
    "hours": null,
    "fee": null,
    "features": [],
    "habitats": [],
    "tips": [],
    "links": [],
    "lastUpdated": null,
    "howToBird": null
  },
  {
    "locId": "L611583",
    "name": "Cannonsburg SGA",
    "lat": 43.0412926,
    "lng": -85.493288,
    "numSpecies": 138,
    "latestObs": "2026-02-14 16:30",
    "knowledge": null,
    "parking": null,
    "hours": null,
    "fee": null,
    "features": [],
    "habitats": [],
    "tips": [],
    "links": [],
    "lastUpdated": null,
    "howToBird": null
  },
  {
    "locId": "L1267050",
    "name": "Cannonsburg Ski Area",
    "lat": 43.0523322,
    "lng": -85.5044031,
    "numSpecies": 60,
    "latestObs": "2026-01-04 13:31",
    "knowledge": null,
    "parking": null,
    "hours": null,
    "fee": null,
    "features": [],
    "habitats": [],
    "tips": [],
    "links": [],
    "lastUpdated": null,
    "howToBird": null
  },
  {
    "locId": "L5475604",
    "name": "Carl Creek Crossing Preserve",
    "lat": 42.9643684,
    "lng": -85.5158401,
    "numSpecies": 96,
    "latestObs": "2026-02-17 14:38",
    "knowledge": null,
    "parking": null,
    "hours": null,
    "fee": null,
    "features": [],
    "habitats": [],
    "tips": [],
    "links": [],
    "lastUpdated": null,
    "howToBird": null
  },
  {
    "locId": "L1176946",
    "name": "Cascade Peace Park",
    "lat": 42.9239846,
    "lng": -85.4515207,
    "numSpecies": 149,
    "latestObs": "2026-03-10 17:17",
    "knowledge": null,
    "parking": null,
    "hours": null,
    "fee": null,
    "features": [],
    "habitats": [],
    "tips": [],
    "links": [],
    "lastUpdated": null,
    "howToBird": null
  },
  {
    "locId": "L3600277",
    "name": "Cascade Twp. Park",
    "lat": 42.8936362,
    "lng": -85.501678,
    "numSpecies": 88,
    "latestObs": "2026-02-25 09:50",
    "knowledge": null,
    "parking": null,
    "hours": null,
    "fee": null,
    "features": [],
    "habitats": [],
    "tips": [],
    "links": [],
    "lastUpdated": null,
    "howToBird": null
  },
  {
    "locId": "L874308",
    "name": "Casnovia Sewage Ponds (limited access)",
    "lat": 43.2364616,
    "lng": -85.7816577,
    "numSpecies": 141,
    "latestObs": "2025-09-06 14:18",
    "knowledge": null,
    "parking": null,
    "hours": null,
    "fee": null,
    "features": [],
    "habitats": [],
    "tips": [],
    "links": [],
    "lastUpdated": null,
    "howToBird": null
  },
  {
    "locId": "L29928465",
    "name": "Cassard Ln. fields",
    "lat": 42.8869428,
    "lng": -85.5141443,
    "numSpecies": 64,
    "latestObs": "2026-03-17 20:09",
    "knowledge": null,
    "parking": null,
    "hours": null,
    "fee": null,
    "features": [],
    "habitats": [],
    "tips": [],
    "links": [],
    "lastUpdated": null,
    "howToBird": null
  },
  {
    "locId": "L1000312",
    "name": "Chase Lake (limited access)",
    "lat": 43.0167993,
    "lng": -85.4678285,
    "numSpecies": 129,
    "latestObs": "2026-03-13 10:44",
    "knowledge": null,
    "parking": null,
    "hours": null,
    "fee": null,
    "features": [],
    "habitats": [],
    "tips": [],
    "links": [],
    "lastUpdated": null,
    "howToBird": null
  },
  {
    "locId": "L2497027",
    "name": "Chief Hazy Cloud Park",
    "lat": 42.9636107,
    "lng": -85.4867408,
    "numSpecies": 103,
    "latestObs": "2026-03-14 13:30",
    "knowledge": null,
    "parking": null,
    "hours": null,
    "fee": null,
    "features": [],
    "habitats": [],
    "tips": [],
    "links": [],
    "lastUpdated": null,
    "howToBird": null
  },
  {
    "locId": "L17586442",
    "name": "Church of the Servant Nature Trail",
    "lat": 42.9286756,
    "lng": -85.5723302,
    "numSpecies": 88,
    "latestObs": "2026-03-12 12:41",
    "knowledge": null,
    "parking": null,
    "hours": null,
    "fee": null,
    "features": [],
    "habitats": [],
    "tips": [],
    "links": [],
    "lastUpdated": null,
    "howToBird": null
  },
  {
    "locId": "L3617527",
    "name": "Coldwater River County Park",
    "lat": 42.784441,
    "lng": -85.4096675,
    "numSpecies": 49,
    "latestObs": "2025-10-14 16:24",
    "knowledge": null,
    "parking": null,
    "hours": null,
    "fee": null,
    "features": [],
    "habitats": [],
    "tips": [],
    "links": [],
    "lastUpdated": null,
    "howToBird": null
  },
  {
    "locId": "L612045",
    "name": "Cook Valley Blvd Wetland",
    "lat": 42.9438735,
    "lng": -85.5730999,
    "numSpecies": 69,
    "latestObs": "2025-10-24 14:22",
    "knowledge": null,
    "parking": null,
    "hours": null,
    "fee": null,
    "features": [],
    "habitats": [],
    "tips": [],
    "links": [],
    "lastUpdated": null,
    "howToBird": null
  },
  {
    "locId": "L860349",
    "name": "Cooper Creek Park",
    "lat": 43.2213711,
    "lng": -85.3275661,
    "numSpecies": 46,
    "latestObs": "2024-11-25 10:13",
    "knowledge": null,
    "parking": null,
    "hours": null,
    "fee": null,
    "features": [],
    "habitats": [],
    "tips": [],
    "links": [],
    "lastUpdated": null,
    "howToBird": null
  },
  {
    "locId": "L7281153",
    "name": "Cooper Woodland Preserve",
    "lat": 42.9439285,
    "lng": -85.3691433,
    "numSpecies": 64,
    "latestObs": "2024-06-02 13:25",
    "knowledge": null,
    "parking": null,
    "hours": null,
    "fee": null,
    "features": [],
    "habitats": [],
    "tips": [],
    "links": [],
    "lastUpdated": null,
    "howToBird": null
  },
  {
    "locId": "L3064680",
    "name": "Cornerstone University Campus",
    "lat": 42.9818268,
    "lng": -85.5951905,
    "numSpecies": 166,
    "latestObs": "2026-03-18 08:51",
    "knowledge": null,
    "parking": null,
    "hours": null,
    "fee": null,
    "features": [],
    "habitats": [],
    "tips": [],
    "links": [],
    "lastUpdated": null,
    "howToBird": null
  },
  {
    "locId": "L36157285",
    "name": "Covenant Park",
    "lat": 42.892526,
    "lng": -85.579692,
    "numSpecies": 46,
    "latestObs": "2026-03-12 15:59",
    "knowledge": null,
    "parking": null,
    "hours": null,
    "fee": null,
    "features": [],
    "habitats": [],
    "tips": [],
    "links": [],
    "lastUpdated": null,
    "howToBird": null
  },
  {
    "locId": "L3830604",
    "name": "Crahen Valley Twp. Park",
    "lat": 42.9852072,
    "lng": -85.5603505,
    "numSpecies": 143,
    "latestObs": "2026-03-16 11:01",
    "knowledge": null,
    "parking": null,
    "hours": null,
    "fee": null,
    "features": [],
    "habitats": [],
    "tips": [],
    "links": [],
    "lastUpdated": null,
    "howToBird": null
  },
  {
    "locId": "L54279052",
    "name": "Crawford Lake",
    "lat": 43.1856424,
    "lng": -85.3920768,
    "numSpecies": 41,
    "latestObs": "2025-10-20 07:30",
    "knowledge": null,
    "parking": null,
    "hours": null,
    "fee": null,
    "features": [],
    "habitats": [],
    "tips": [],
    "links": [],
    "lastUpdated": null,
    "howToBird": null
  },
  {
    "locId": "L3794414",
    "name": "Creekside Park",
    "lat": 42.842691,
    "lng": -85.637733,
    "numSpecies": 97,
    "latestObs": "2026-02-15 09:40",
    "knowledge": null,
    "parking": null,
    "hours": null,
    "fee": null,
    "features": [],
    "habitats": [],
    "tips": [],
    "links": [],
    "lastUpdated": null,
    "howToBird": null
  },
  {
    "locId": "L3663535",
    "name": "Crescent Park",
    "lat": 42.9688119,
    "lng": -85.6668484,
    "numSpecies": 30,
    "latestObs": "2026-01-31 14:09",
    "knowledge": null,
    "parking": null,
    "hours": null,
    "fee": null,
    "features": [],
    "habitats": [],
    "tips": [],
    "links": [],
    "lastUpdated": null,
    "howToBird": null
  },
  {
    "locId": "L8653792",
    "name": "Davenport University campus",
    "lat": 42.8494149,
    "lng": -85.5307102,
    "numSpecies": 41,
    "latestObs": "2025-03-01 13:30",
    "knowledge": null,
    "parking": null,
    "hours": null,
    "fee": null,
    "features": [],
    "habitats": [],
    "tips": [],
    "links": [],
    "lastUpdated": null,
    "howToBird": null
  },
  {
    "locId": "L6097979",
    "name": "Dean Lake",
    "lat": 43.0301055,
    "lng": -85.6099802,
    "numSpecies": 60,
    "latestObs": "2026-02-07 07:56",
    "knowledge": null,
    "parking": null,
    "hours": null,
    "fee": null,
    "features": [],
    "habitats": [],
    "tips": [],
    "links": [],
    "lastUpdated": null,
    "howToBird": null
  },
  {
    "locId": "L9392055",
    "name": "Division St. fluddle",
    "lat": 42.7703272,
    "lng": -85.6599722,
    "numSpecies": 52,
    "latestObs": "2026-03-18 15:27",
    "knowledge": null,
    "parking": null,
    "hours": null,
    "fee": null,
    "features": [],
    "habitats": [],
    "tips": [],
    "links": [],
    "lastUpdated": null,
    "howToBird": null
  },
  {
    "locId": "L612508",
    "name": "Dolan Nature Sanctuary (Baker Ave. Coldwater River Sanctuary)",
    "lat": 42.7772287,
    "lng": -85.3583521,
    "numSpecies": 154,
    "latestObs": "2026-03-06 07:55",
    "knowledge": null,
    "parking": null,
    "hours": null,
    "fee": null,
    "features": [],
    "habitats": [],
    "tips": [],
    "links": [],
    "lastUpdated": null,
    "howToBird": null
  },
  {
    "locId": "L860354",
    "name": "Donald Lamoreaux Park",
    "lat": 43.0431745,
    "lng": -85.6470537,
    "numSpecies": 170,
    "latestObs": "2026-03-04 11:23",
    "knowledge": null,
    "parking": null,
    "hours": null,
    "fee": null,
    "features": [],
    "habitats": [],
    "tips": [],
    "links": [],
    "lastUpdated": null,
    "howToBird": null
  },
  {
    "locId": "L2829566",
    "name": "Douglas Walker Park",
    "lat": 42.8154015,
    "lng": -85.6901914,
    "numSpecies": 119,
    "latestObs": "2025-11-22 16:00",
    "knowledge": null,
    "parking": null,
    "hours": null,
    "fee": null,
    "features": [],
    "habitats": [],
    "tips": [],
    "links": [],
    "lastUpdated": null,
    "howToBird": null
  },
  {
    "locId": "L18591095",
    "name": "Duncan Lake Ave. swamp",
    "lat": 42.7809335,
    "lng": -85.5216199,
    "numSpecies": 35,
    "latestObs": "2023-04-27 11:12",
    "knowledge": null,
    "parking": null,
    "hours": null,
    "fee": null,
    "features": [],
    "habitats": [],
    "tips": [],
    "links": [],
    "lastUpdated": null,
    "howToBird": null
  },
  {
    "locId": "L2042626",
    "name": "East Paris Nature Park",
    "lat": 42.8557723,
    "lng": -85.5680622,
    "numSpecies": 158,
    "latestObs": "2026-03-16 10:14",
    "knowledge": null,
    "parking": null,
    "hours": null,
    "fee": null,
    "features": [],
    "habitats": [],
    "tips": [],
    "links": [],
    "lastUpdated": null,
    "howToBird": null
  },
  {
    "locId": "L16319896",
    "name": "Evergreen Lake",
    "lat": 43.0179692,
    "lng": -85.5880258,
    "numSpecies": 74,
    "latestObs": "2026-02-24 12:16",
    "knowledge": null,
    "parking": null,
    "hours": null,
    "fee": null,
    "features": [],
    "habitats": [],
    "tips": [],
    "links": [],
    "lastUpdated": null,
    "howToBird": null
  },
  {
    "locId": "L7932008",
    "name": "Fallasburg Covered Bridge Park",
    "lat": 42.980608,
    "lng": -85.327791,
    "numSpecies": 78,
    "latestObs": "2026-01-14 14:16",
    "knowledge": null,
    "parking": null,
    "hours": null,
    "fee": null,
    "features": [],
    "habitats": [],
    "tips": [],
    "links": [],
    "lastUpdated": null,
    "howToBird": null
  },
  {
    "locId": "L1354771",
    "name": "Fallasburg Park",
    "lat": 42.9868354,
    "lng": -85.3264276,
    "numSpecies": 116,
    "latestObs": "2025-12-11 10:29",
    "knowledge": null,
    "parking": null,
    "hours": null,
    "fee": null,
    "features": [],
    "habitats": [],
    "tips": [],
    "links": [],
    "lastUpdated": null,
    "howToBird": null
  },
  {
    "locId": "L9085666",
    "name": "Fallasburg Park",
    "lat": 42.9709004,
    "lng": -85.3312759,
    "numSpecies": 57,
    "latestObs": "2026-02-24 14:45",
    "knowledge": null,
    "parking": null,
    "hours": null,
    "fee": null,
    "features": [],
    "habitats": [],
    "tips": [],
    "links": [],
    "lastUpdated": null,
    "howToBird": null
  },
  {
    "locId": "L3293827",
    "name": "Fish Ladder Park",
    "lat": 42.9743335,
    "lng": -85.6759518,
    "numSpecies": 56,
    "latestObs": "2026-01-06 13:28",
    "knowledge": null,
    "parking": null,
    "hours": null,
    "fee": null,
    "features": [],
    "habitats": [],
    "tips": [],
    "links": [],
    "lastUpdated": null,
    "howToBird": null
  },
  {
    "locId": "L612022",
    "name": "Fisk Knob",
    "lat": 43.2832664,
    "lng": -85.6127858,
    "numSpecies": 69,
    "latestObs": "2025-06-25 08:34",
    "knowledge": null,
    "parking": null,
    "hours": null,
    "fee": null,
    "features": [],
    "habitats": [],
    "tips": [],
    "links": [],
    "lastUpdated": null,
    "howToBird": null
  },
  {
    "locId": "L1335189",
    "name": "Flat Iron Lake Preserve (restricted access)",
    "lat": 43.1237651,
    "lng": -85.386266,
    "numSpecies": 138,
    "latestObs": "2025-11-22 01:34",
    "knowledge": null,
    "parking": null,
    "hours": null,
    "fee": null,
    "features": [],
    "habitats": [],
    "tips": [],
    "links": [],
    "lastUpdated": null,
    "howToBird": null
  },
  {
    "locId": "L1366982",
    "name": "Flat River Bluff Park",
    "lat": 42.9651349,
    "lng": -85.3324739,
    "numSpecies": 56,
    "latestObs": "2026-02-12 16:21",
    "knowledge": null,
    "parking": null,
    "hours": null,
    "fee": null,
    "features": [],
    "habitats": [],
    "tips": [],
    "links": [],
    "lastUpdated": null,
    "howToBird": null
  },
  {
    "locId": "L864999",
    "name": "Flat River--Riverside Dr. area",
    "lat": 42.9385485,
    "lng": -85.3428268,
    "numSpecies": 80,
    "latestObs": "2026-03-05 13:46",
    "knowledge": null,
    "parking": null,
    "hours": null,
    "fee": null,
    "features": [],
    "habitats": [],
    "tips": [],
    "links": [],
    "lastUpdated": null,
    "howToBird": null
  },
  {
    "locId": "L7164620",
    "name": "Forest Hills HS--Northern Campus",
    "lat": 42.9880271,
    "lng": -85.5778849,
    "numSpecies": 33,
    "latestObs": "2021-08-16 18:49",
    "knowledge": null,
    "parking": null,
    "hours": null,
    "fee": null,
    "features": [],
    "habitats": [],
    "tips": [],
    "links": [],
    "lastUpdated": null,
    "howToBird": null
  },
  {
    "locId": "L23275901",
    "name": "Fred Meijer Flat River Trail (3 mile to Ashley)",
    "lat": 43.0164467,
    "lng": -85.3598352,
    "numSpecies": 69,
    "latestObs": "2026-02-27 10:49",
    "knowledge": null,
    "parking": null,
    "hours": null,
    "fee": null,
    "features": [],
    "habitats": [],
    "tips": [],
    "links": [],
    "lastUpdated": null,
    "howToBird": null
  },
  {
    "locId": "L15387719",
    "name": "Fred Meijer Flat River Trail (Bailey to McPhearson)",
    "lat": 42.9797953,
    "lng": -85.3646819,
    "numSpecies": 87,
    "latestObs": "2025-12-27 11:25",
    "knowledge": null,
    "parking": null,
    "hours": null,
    "fee": null,
    "features": [],
    "habitats": [],
    "tips": [],
    "links": [],
    "lastUpdated": null,
    "howToBird": null
  },
  {
    "locId": "L4630874",
    "name": "Fred Meijer Flat River Trail (McPherson to 3 mile)",
    "lat": 42.9960766,
    "lng": -85.35925,
    "numSpecies": 112,
    "latestObs": "2026-01-01 10:37",
    "knowledge": null,
    "parking": null,
    "hours": null,
    "fee": null,
    "features": [],
    "habitats": [],
    "tips": [],
    "links": [],
    "lastUpdated": null,
    "howToBird": null
  },
  {
    "locId": "L986779",
    "name": "Frederik Meijer Gardens & Sculpture Park",
    "lat": 42.9796761,
    "lng": -85.5852985,
    "numSpecies": 160,
    "latestObs": "2026-02-28 11:25",
    "knowledge": null,
    "parking": null,
    "hours": null,
    "fee": null,
    "features": [],
    "habitats": [],
    "tips": [],
    "links": [],
    "lastUpdated": null,
    "howToBird": null
  },
  {
    "locId": "L9084847",
    "name": "Frederik Meijer Gardens & Sculpture Park--north overlook",
    "lat": 42.9840101,
    "lng": -85.5803852,
    "numSpecies": 56,
    "latestObs": "2025-10-28 17:33",
    "knowledge": null,
    "parking": null,
    "hours": null,
    "fee": null,
    "features": [],
    "habitats": [],
    "tips": [],
    "links": [],
    "lastUpdated": null,
    "howToBird": null
  },
  {
    "locId": "L3154392",
    "name": "Garfield Park",
    "lat": 42.925813,
    "lng": -85.6601751,
    "numSpecies": 40,
    "latestObs": "2025-11-07 15:56",
    "knowledge": null,
    "parking": null,
    "hours": null,
    "fee": null,
    "features": [],
    "habitats": [],
    "tips": [],
    "links": [],
    "lastUpdated": null,
    "howToBird": null
  },
  {
    "locId": "L888511",
    "name": "Gerald R. Ford Airport (s. Kraft Ave. access)",
    "lat": 42.8763415,
    "lng": -85.5267137,
    "numSpecies": 150,
    "latestObs": "2026-03-16 10:03",
    "knowledge": null,
    "parking": null,
    "hours": null,
    "fee": null,
    "features": [],
    "habitats": [],
    "tips": [],
    "links": [],
    "lastUpdated": null,
    "howToBird": null
  },
  {
    "locId": "L41539431",
    "name": "Gezon Park",
    "lat": 42.8688114,
    "lng": -85.7119632,
    "numSpecies": 63,
    "latestObs": "2026-03-08 12:15",
    "knowledge": null,
    "parking": null,
    "hours": null,
    "fee": null,
    "features": [],
    "habitats": [],
    "tips": [],
    "links": [],
    "lastUpdated": null,
    "howToBird": null
  },
  {
    "locId": "L29104877",
    "name": "Glen Park",
    "lat": 43.125015,
    "lng": -85.5698312,
    "numSpecies": 13,
    "latestObs": "2025-12-06 08:52",
    "knowledge": null,
    "parking": null,
    "hours": null,
    "fee": null,
    "features": [],
    "habitats": [],
    "tips": [],
    "links": [],
    "lastUpdated": null,
    "howToBird": null
  },
  {
    "locId": "L18657901",
    "name": "Grace Christian University",
    "lat": 42.9196905,
    "lng": -85.6918505,
    "numSpecies": 103,
    "latestObs": "2026-03-17 08:24",
    "knowledge": null,
    "parking": null,
    "hours": null,
    "fee": null,
    "features": [],
    "habitats": [],
    "tips": [],
    "links": [],
    "lastUpdated": null,
    "howToBird": null
  },
  {
    "locId": "L3850038",
    "name": "Grand Isle Park",
    "lat": 43.0610181,
    "lng": -85.6014669,
    "numSpecies": 112,
    "latestObs": "2026-03-12 08:30",
    "knowledge": null,
    "parking": null,
    "hours": null,
    "fee": null,
    "features": [],
    "habitats": [],
    "tips": [],
    "links": [],
    "lastUpdated": null,
    "howToBird": null
  },
  {
    "locId": "L5916877",
    "name": "Grand Rapids Charter Twp. Park",
    "lat": 42.9964674,
    "lng": -85.587575,
    "numSpecies": 73,
    "latestObs": "2026-01-19 08:31",
    "knowledge": null,
    "parking": null,
    "hours": null,
    "fee": null,
    "features": [],
    "habitats": [],
    "tips": [],
    "links": [],
    "lastUpdated": null,
    "howToBird": null
  },
  {
    "locId": "L4121571",
    "name": "Grand River Nature Trail",
    "lat": 42.9447335,
    "lng": -85.4681638,
    "numSpecies": 87,
    "latestObs": "2026-03-06 10:15",
    "knowledge": null,
    "parking": null,
    "hours": null,
    "fee": null,
    "features": [],
    "habitats": [],
    "tips": [],
    "links": [],
    "lastUpdated": null,
    "howToBird": null
  },
  {
    "locId": "L2037439",
    "name": "Grand River--6th St. Bridge Park",
    "lat": 42.9754845,
    "lng": -85.6731033,
    "numSpecies": 79,
    "latestObs": "2026-01-15 17:47",
    "knowledge": null,
    "parking": null,
    "hours": null,
    "fee": null,
    "features": [],
    "habitats": [],
    "tips": [],
    "links": [],
    "lastUpdated": null,
    "howToBird": null
  },
  {
    "locId": "L1106405",
    "name": "Grand River--Abrigador Trail",
    "lat": 43.0523419,
    "lng": -85.6446075,
    "numSpecies": 60,
    "latestObs": "2023-04-16 12:19",
    "knowledge": null,
    "parking": null,
    "hours": null,
    "fee": null,
    "features": [],
    "habitats": [],
    "tips": [],
    "links": [],
    "lastUpdated": null,
    "howToBird": null
  },
  {
    "locId": "L1111356",
    "name": "Grand River--Canal Park",
    "lat": 42.980932,
    "lng": -85.6723309,
    "numSpecies": 65,
    "latestObs": "2025-09-19 15:25",
    "knowledge": null,
    "parking": null,
    "hours": null,
    "fee": null,
    "features": [],
    "habitats": [],
    "tips": [],
    "links": [],
    "lastUpdated": null,
    "howToBird": null
  },
  {
    "locId": "L1337557",
    "name": "Grand River--DNR Park (Plainfield Charter Twp.)",
    "lat": 43.0626765,
    "lng": -85.5872057,
    "numSpecies": 97,
    "latestObs": "2026-02-27 15:21",
    "knowledge": null,
    "parking": null,
    "hours": null,
    "fee": null,
    "features": [],
    "habitats": [],
    "tips": [],
    "links": [],
    "lastUpdated": null,
    "howToBird": null
  },
  {
    "locId": "L639226",
    "name": "Grand River--Fulton St. access",
    "lat": 42.9560613,
    "lng": -85.4773664,
    "numSpecies": 78,
    "latestObs": "2026-02-14 15:11",
    "knowledge": null,
    "parking": null,
    "hours": null,
    "fee": null,
    "features": [],
    "habitats": [],
    "tips": [],
    "links": [],
    "lastUpdated": null,
    "howToBird": null
  },
  {
    "locId": "L1085780",
    "name": "Grand River--Myrtle St. NW",
    "lat": 42.9883253,
    "lng": -85.6743747,
    "numSpecies": 46,
    "latestObs": "2026-02-15 15:37",
    "knowledge": null,
    "parking": null,
    "hours": null,
    "fee": null,
    "features": [],
    "habitats": [],
    "tips": [],
    "links": [],
    "lastUpdated": null,
    "howToBird": null
  },
  {
    "locId": "L27353642",
    "name": "Grand Rogue Park",
    "lat": 43.06283,
    "lng": -85.593309,
    "numSpecies": 82,
    "latestObs": "2026-03-02 14:20",
    "knowledge": null,
    "parking": null,
    "hours": null,
    "fee": null,
    "features": [],
    "habitats": [],
    "tips": [],
    "links": [],
    "lastUpdated": null,
    "howToBird": null
  },
  {
    "locId": "L625203",
    "name": "Greenwood Cemetery",
    "lat": 42.9876347,
    "lng": -85.7052898,
    "numSpecies": 75,
    "latestObs": "2026-02-18 12:24",
    "knowledge": null,
    "parking": null,
    "hours": null,
    "fee": null,
    "features": [],
    "habitats": [],
    "tips": [],
    "links": [],
    "lastUpdated": null,
    "howToBird": null
  },
  {
    "locId": "L7947857",
    "name": "Heritage Park",
    "lat": 42.8872659,
    "lng": -85.7715213,
    "numSpecies": 60,
    "latestObs": "2026-03-15 14:38",
    "knowledge": null,
    "parking": null,
    "hours": null,
    "fee": null,
    "features": [],
    "habitats": [],
    "tips": [],
    "links": [],
    "lastUpdated": null,
    "howToBird": null
  },
  {
    "locId": "L3895784",
    "name": "Highland Park",
    "lat": 42.9732122,
    "lng": -85.6529814,
    "numSpecies": 83,
    "latestObs": "2026-03-09 18:32",
    "knowledge": null,
    "parking": null,
    "hours": null,
    "fee": null,
    "features": [],
    "habitats": [],
    "tips": [],
    "links": [],
    "lastUpdated": null,
    "howToBird": null
  },
  {
    "locId": "L717752",
    "name": "Hodenpyl Woods",
    "lat": 42.9581971,
    "lng": -85.609417,
    "numSpecies": 201,
    "latestObs": "2026-03-17 09:52",
    "knowledge": null,
    "parking": null,
    "hours": null,
    "fee": null,
    "features": [],
    "habitats": [],
    "tips": [],
    "links": [],
    "lastUpdated": null,
    "howToBird": null
  },
  {
    "locId": "L778698",
    "name": "Howard Christensen Nature Center",
    "lat": 43.2581433,
    "lng": -85.6878448,
    "numSpecies": 154,
    "latestObs": "2026-02-22 11:23",
    "knowledge": null,
    "parking": null,
    "hours": null,
    "fee": null,
    "features": [],
    "habitats": [],
    "tips": [],
    "links": [],
    "lastUpdated": null,
    "howToBird": null
  },
  {
    "locId": "L5617664",
    "name": "Huckleberry Hills",
    "lat": 42.9114982,
    "lng": -85.3475797,
    "numSpecies": 11,
    "latestObs": "2026-02-01 12:00",
    "knowledge": null,
    "parking": null,
    "hours": null,
    "fee": null,
    "features": [],
    "habitats": [],
    "tips": [],
    "links": [],
    "lastUpdated": null,
    "howToBird": null
  },
  {
    "locId": "L613092",
    "name": "Huff Park",
    "lat": 43.0058,
    "lng": -85.63498,
    "numSpecies": 191,
    "latestObs": "2026-03-15 10:49",
    "knowledge": null,
    "parking": null,
    "hours": null,
    "fee": null,
    "features": [],
    "habitats": [],
    "tips": [],
    "links": [],
    "lastUpdated": null,
    "howToBird": null
  },
  {
    "locId": "L12679741",
    "name": "Ideal Park",
    "lat": 42.8578255,
    "lng": -85.6728194,
    "numSpecies": 34,
    "latestObs": "2026-02-16 15:54",
    "knowledge": null,
    "parking": null,
    "hours": null,
    "fee": null,
    "features": [],
    "habitats": [],
    "tips": [],
    "links": [],
    "lastUpdated": null,
    "howToBird": null
  },
  {
    "locId": "L9115103",
    "name": "Indian Mounds Dr.",
    "lat": 42.9278291,
    "lng": -85.7596682,
    "numSpecies": 124,
    "latestObs": "2026-02-19 09:07",
    "knowledge": null,
    "parking": null,
    "hours": null,
    "fee": null,
    "features": [],
    "habitats": [],
    "tips": [],
    "links": [],
    "lastUpdated": null,
    "howToBird": null
  },
  {
    "locId": "L19150305",
    "name": "Ironwood GC",
    "lat": 42.8454957,
    "lng": -85.7565421,
    "numSpecies": 27,
    "latestObs": "2022-05-19 07:15",
    "knowledge": null,
    "parking": null,
    "hours": null,
    "fee": null,
    "features": [],
    "habitats": [],
    "tips": [],
    "links": [],
    "lastUpdated": null,
    "howToBird": null
  },
  {
    "locId": "L39040260",
    "name": "James & Shirley Balk Family Park",
    "lat": 43.087125,
    "lng": -85.478851,
    "numSpecies": 71,
    "latestObs": "2026-01-08 10:32",
    "knowledge": null,
    "parking": null,
    "hours": null,
    "fee": null,
    "features": [],
    "habitats": [],
    "tips": [],
    "links": [],
    "lastUpdated": null,
    "howToBird": null
  },
  {
    "locId": "L13090573",
    "name": "Jaycee Park",
    "lat": 42.8614877,
    "lng": -85.6351984,
    "numSpecies": 63,
    "latestObs": "2026-03-08 15:15",
    "knowledge": null,
    "parking": null,
    "hours": null,
    "fee": null,
    "features": [],
    "habitats": [],
    "tips": [],
    "links": [],
    "lastUpdated": null,
    "howToBird": null
  },
  {
    "locId": "L3526347",
    "name": "John Ball Zoo",
    "lat": 42.9635558,
    "lng": -85.7045737,
    "numSpecies": 121,
    "latestObs": "2026-03-01 16:33",
    "knowledge": null,
    "parking": null,
    "hours": null,
    "fee": null,
    "features": [],
    "habitats": [],
    "tips": [],
    "links": [],
    "lastUpdated": null,
    "howToBird": null
  },
  {
    "locId": "L860351",
    "name": "Johnson Park",
    "lat": 42.9238495,
    "lng": -85.7698689,
    "numSpecies": 109,
    "latestObs": "2025-09-03 07:49",
    "knowledge": null,
    "parking": null,
    "hours": null,
    "fee": null,
    "features": [],
    "habitats": [],
    "tips": [],
    "links": [],
    "lastUpdated": null,
    "howToBird": null
  },
  {
    "locId": "L4621259",
    "name": "Kellogg Woods Park",
    "lat": 42.8644289,
    "lng": -85.6577772,
    "numSpecies": 41,
    "latestObs": "2026-01-08 15:56",
    "knowledge": null,
    "parking": null,
    "hours": null,
    "fee": null,
    "features": [],
    "habitats": [],
    "tips": [],
    "links": [],
    "lastUpdated": null,
    "howToBird": null
  },
  {
    "locId": "L613501",
    "name": "Ken-O-Sha Park",
    "lat": 42.90653,
    "lng": -85.63666,
    "numSpecies": 145,
    "latestObs": "2026-03-02 16:11",
    "knowledge": null,
    "parking": null,
    "hours": null,
    "fee": null,
    "features": [],
    "habitats": [],
    "tips": [],
    "links": [],
    "lastUpdated": null,
    "howToBird": null
  },
  {
    "locId": "L874307",
    "name": "Kent City Sewage Ponds (limited access)",
    "lat": 43.2169364,
    "lng": -85.7449865,
    "numSpecies": 128,
    "latestObs": "2025-09-06 13:08",
    "knowledge": null,
    "parking": null,
    "hours": null,
    "fee": null,
    "features": [],
    "habitats": [],
    "tips": [],
    "links": [],
    "lastUpdated": null,
    "howToBird": null
  },
  {
    "locId": "L2873918",
    "name": "Kent Trails--Grandville Clean Water Plant",
    "lat": 42.907183,
    "lng": -85.780125,
    "numSpecies": 51,
    "latestObs": "2026-01-01 09:07",
    "knowledge": null,
    "parking": null,
    "hours": null,
    "fee": null,
    "features": [],
    "habitats": [],
    "tips": [],
    "links": [],
    "lastUpdated": null,
    "howToBird": null
  },
  {
    "locId": "L2957044",
    "name": "King Preserve",
    "lat": 42.7714023,
    "lng": -85.3234777,
    "numSpecies": 17,
    "latestObs": "2016-04-15 14:04",
    "knowledge": null,
    "parking": null,
    "hours": null,
    "fee": null,
    "features": [],
    "habitats": [],
    "tips": [],
    "links": [],
    "lastUpdated": null,
    "howToBird": null
  },
  {
    "locId": "L25592848",
    "name": "Knapp Valley Forest Preserve",
    "lat": 43.010485,
    "lng": -85.563213,
    "numSpecies": 35,
    "latestObs": "2025-11-23 08:49",
    "knowledge": null,
    "parking": null,
    "hours": null,
    "fee": null,
    "features": [],
    "habitats": [],
    "tips": [],
    "links": [],
    "lastUpdated": null,
    "howToBird": null
  },
  {
    "locId": "L4177925",
    "name": "Konkle Dr. Grand River access",
    "lat": 43.0621312,
    "lng": -85.6083333,
    "numSpecies": 45,
    "latestObs": "2026-03-04 14:48",
    "knowledge": null,
    "parking": null,
    "hours": null,
    "fee": null,
    "features": [],
    "habitats": [],
    "tips": [],
    "links": [],
    "lastUpdated": null,
    "howToBird": null
  },
  {
    "locId": "L4043987",
    "name": "Lamar Park",
    "lat": 42.9237175,
    "lng": -85.7293761,
    "numSpecies": 56,
    "latestObs": "2026-02-19 09:08",
    "knowledge": null,
    "parking": null,
    "hours": null,
    "fee": null,
    "features": [],
    "habitats": [],
    "tips": [],
    "links": [],
    "lastUpdated": null,
    "howToBird": null
  },
  {
    "locId": "L3514485",
    "name": "Lamberton Lake Fen Nature Preserve",
    "lat": 43.0178641,
    "lng": -85.6275165,
    "numSpecies": 96,
    "latestObs": "2025-10-15 15:06",
    "knowledge": null,
    "parking": null,
    "hours": null,
    "fee": null,
    "features": [],
    "habitats": [],
    "tips": [],
    "links": [],
    "lastUpdated": null,
    "howToBird": null
  },
  {
    "locId": "L4986710",
    "name": "Lepard Preserve",
    "lat": 42.825951,
    "lng": -85.517108,
    "numSpecies": 72,
    "latestObs": "2026-03-12 11:54",
    "knowledge": null,
    "parking": null,
    "hours": null,
    "fee": null,
    "features": [],
    "habitats": [],
    "tips": [],
    "links": [],
    "lastUpdated": null,
    "howToBird": null
  },
  {
    "locId": "L2497033",
    "name": "Leslie E. Tassell Park",
    "lat": 42.9100654,
    "lng": -85.4994437,
    "numSpecies": 114,
    "latestObs": "2026-03-09 17:17",
    "knowledge": null,
    "parking": null,
    "hours": null,
    "fee": null,
    "features": [],
    "habitats": [],
    "tips": [],
    "links": [],
    "lastUpdated": null,
    "howToBird": null
  },
  {
    "locId": "L49397661",
    "name": "Lewis Lake",
    "lat": 43.0339909,
    "lng": -85.3513411,
    "numSpecies": 1,
    "latestObs": "2025-09-20 18:11",
    "knowledge": null,
    "parking": null,
    "hours": null,
    "fee": null,
    "features": [],
    "habitats": [],
    "tips": [],
    "links": [],
    "lastUpdated": null,
    "howToBird": null
  },
  {
    "locId": "L35295900",
    "name": "Lime Lake",
    "lat": 43.208212,
    "lng": -85.640147,
    "numSpecies": 23,
    "latestObs": "2025-09-19 14:42",
    "knowledge": null,
    "parking": null,
    "hours": null,
    "fee": null,
    "features": [],
    "habitats": [],
    "tips": [],
    "links": [],
    "lastUpdated": null,
    "howToBird": null
  },
  {
    "locId": "L612515",
    "name": "Lincoln Lake",
    "lat": 43.2422604,
    "lng": -85.3650541,
    "numSpecies": 136,
    "latestObs": "2026-02-25 14:00",
    "knowledge": null,
    "parking": null,
    "hours": null,
    "fee": null,
    "features": [],
    "habitats": [],
    "tips": [],
    "links": [],
    "lastUpdated": null,
    "howToBird": null
  },
  {
    "locId": "L1202969",
    "name": "Lincoln Lake Ave./12 Mile wetland",
    "lat": 43.1446478,
    "lng": -85.3510666,
    "numSpecies": 62,
    "latestObs": "2025-05-01 00:54",
    "knowledge": null,
    "parking": null,
    "hours": null,
    "fee": null,
    "features": [],
    "habitats": [],
    "tips": [],
    "links": [],
    "lastUpdated": null,
    "howToBird": null
  },
  {
    "locId": "L613093",
    "name": "Long Lake County Park",
    "lat": 43.21594,
    "lng": -85.66155,
    "numSpecies": 130,
    "latestObs": "2026-02-19 11:12",
    "knowledge": null,
    "parking": null,
    "hours": null,
    "fee": null,
    "features": [],
    "habitats": [],
    "tips": [],
    "links": [],
    "lastUpdated": null,
    "howToBird": null
  },
  {
    "locId": "L9950143",
    "name": "Lowell North Riverfront Park",
    "lat": 42.928162,
    "lng": -85.372228,
    "numSpecies": 101,
    "latestObs": "2026-03-14 13:11",
    "knowledge": null,
    "parking": null,
    "hours": null,
    "fee": null,
    "features": [],
    "habitats": [],
    "tips": [],
    "links": [],
    "lastUpdated": null,
    "howToBird": null
  },
  {
    "locId": "L11601769",
    "name": "Lowell Regional Greenspace",
    "lat": 42.893778,
    "lng": -85.346704,
    "numSpecies": 37,
    "latestObs": "2024-11-09 15:30",
    "knowledge": null,
    "parking": null,
    "hours": null,
    "fee": null,
    "features": [],
    "habitats": [],
    "tips": [],
    "links": [],
    "lastUpdated": null,
    "howToBird": null
  },
  {
    "locId": "L611580",
    "name": "Lowell SGA general (Kent Co.)",
    "lat": 42.9510691,
    "lng": -85.3160048,
    "numSpecies": 105,
    "latestObs": "2025-05-10 19:45",
    "knowledge": null,
    "parking": null,
    "hours": null,
    "fee": null,
    "features": [],
    "habitats": [],
    "tips": [],
    "links": [],
    "lastUpdated": null,
    "howToBird": null
  },
  {
    "locId": "L5901892",
    "name": "Lowell SGA--Grindle Dr. access",
    "lat": 42.94753,
    "lng": -85.327049,
    "numSpecies": 72,
    "latestObs": "2025-03-15 14:00",
    "knowledge": null,
    "parking": null,
    "hours": null,
    "fee": null,
    "features": [],
    "habitats": [],
    "tips": [],
    "links": [],
    "lastUpdated": null,
    "howToBird": null
  },
  {
    "locId": "L5902888",
    "name": "Lowell SGA--McPherson St. access",
    "lat": 42.985429,
    "lng": -85.318561,
    "numSpecies": 50,
    "latestObs": "2025-03-08 11:35",
    "knowledge": null,
    "parking": null,
    "hours": null,
    "fee": null,
    "features": [],
    "habitats": [],
    "tips": [],
    "links": [],
    "lastUpdated": null,
    "howToBird": null
  },
  {
    "locId": "L5902287",
    "name": "Lowell SGA--Montcalm Ave. south access",
    "lat": 42.947817,
    "lng": -85.312344,
    "numSpecies": 59,
    "latestObs": "2026-03-08 11:10",
    "knowledge": null,
    "parking": null,
    "hours": null,
    "fee": null,
    "features": [],
    "habitats": [],
    "tips": [],
    "links": [],
    "lastUpdated": null,
    "howToBird": null
  },
  {
    "locId": "L5902640",
    "name": "Lowell SGA--Montcalm Dr. north access",
    "lat": 42.972129,
    "lng": -85.312809,
    "numSpecies": 44,
    "latestObs": "2026-01-09 12:41",
    "knowledge": null,
    "parking": null,
    "hours": null,
    "fee": null,
    "features": [],
    "habitats": [],
    "tips": [],
    "links": [],
    "lastUpdated": null,
    "howToBird": null
  },
  {
    "locId": "L860356",
    "name": "Luton Park",
    "lat": 43.1154766,
    "lng": -85.5174665,
    "numSpecies": 135,
    "latestObs": "2026-03-16 10:15",
    "knowledge": null,
    "parking": null,
    "hours": null,
    "fee": null,
    "features": [],
    "habitats": [],
    "tips": [],
    "links": [],
    "lastUpdated": null,
    "howToBird": null
  },
  {
    "locId": "L2751857",
    "name": "MDOT wetland (92nd west of Clyde Park)",
    "lat": 42.7985334,
    "lng": -85.69174,
    "numSpecies": 149,
    "latestObs": "2025-10-12 17:28",
    "knowledge": null,
    "parking": null,
    "hours": null,
    "fee": null,
    "features": [],
    "habitats": [],
    "tips": [],
    "links": [],
    "lastUpdated": null,
    "howToBird": null
  },
  {
    "locId": "L4581922",
    "name": "Maas Family Nature Preserve",
    "lat": 43.153919,
    "lng": -85.565757,
    "numSpecies": 66,
    "latestObs": "2025-12-11 18:59",
    "knowledge": null,
    "parking": null,
    "hours": null,
    "fee": null,
    "features": [],
    "habitats": [],
    "tips": [],
    "links": [],
    "lastUpdated": null,
    "howToBird": null
  },
  {
    "locId": "L1436882",
    "name": "Mackay-Jaycees Park",
    "lat": 42.9145271,
    "lng": -85.6359494,
    "numSpecies": 76,
    "latestObs": "2026-03-16 08:24",
    "knowledge": null,
    "parking": null,
    "hours": null,
    "fee": null,
    "features": [],
    "habitats": [],
    "tips": [],
    "links": [],
    "lastUpdated": null,
    "howToBird": null
  },
  {
    "locId": "L1843864",
    "name": "Manhattan Park/Recreation Area",
    "lat": 42.9547483,
    "lng": -85.5930394,
    "numSpecies": 81,
    "latestObs": "2026-03-09 19:10",
    "knowledge": null,
    "parking": null,
    "hours": null,
    "fee": null,
    "features": [],
    "habitats": [],
    "tips": [],
    "links": [],
    "lastUpdated": null,
    "howToBird": null
  },
  {
    "locId": "L2791797",
    "name": "Martin Luther King Park",
    "lat": 42.946152,
    "lng": -85.6384271,
    "numSpecies": 33,
    "latestObs": "2026-01-04 10:06",
    "knowledge": null,
    "parking": null,
    "hours": null,
    "fee": null,
    "features": [],
    "habitats": [],
    "tips": [],
    "links": [],
    "lastUpdated": null,
    "howToBird": null
  },
  {
    "locId": "L1302545",
    "name": "Maston Lake",
    "lat": 43.2763888,
    "lng": -85.3570533,
    "numSpecies": 15,
    "latestObs": "2026-02-25 15:01",
    "knowledge": null,
    "parking": null,
    "hours": null,
    "fee": null,
    "features": [],
    "habitats": [],
    "tips": [],
    "links": [],
    "lastUpdated": null,
    "howToBird": null
  },
  {
    "locId": "L3974743",
    "name": "Merrell Trail",
    "lat": 43.1137693,
    "lng": -85.5994312,
    "numSpecies": 68,
    "latestObs": "2025-06-27 19:33",
    "knowledge": null,
    "parking": null,
    "hours": null,
    "fee": null,
    "features": [],
    "habitats": [],
    "tips": [],
    "links": [],
    "lastUpdated": null,
    "howToBird": null
  },
  {
    "locId": "L2506460",
    "name": "Michael McGraw Park",
    "lat": 42.9398758,
    "lng": -85.4582852,
    "numSpecies": 140,
    "latestObs": "2026-03-14 11:26",
    "knowledge": null,
    "parking": null,
    "hours": null,
    "fee": null,
    "features": [],
    "habitats": [],
    "tips": [],
    "links": [],
    "lastUpdated": null,
    "howToBird": null
  },
  {
    "locId": "L1143505",
    "name": "Millennium Park",
    "lat": 42.9410461,
    "lng": -85.7443321,
    "numSpecies": 224,
    "latestObs": "2026-03-17 16:13",
    "knowledge": null,
    "parking": null,
    "hours": null,
    "fee": null,
    "features": [],
    "habitats": [],
    "tips": [],
    "links": [],
    "lastUpdated": null,
    "howToBird": null
  },
  {
    "locId": "L4177923",
    "name": "Millennium Park--Trestle Trail ponds",
    "lat": 42.9459155,
    "lng": -85.7170594,
    "numSpecies": 164,
    "latestObs": "2026-03-09 16:22",
    "knowledge": null,
    "parking": null,
    "hours": null,
    "fee": null,
    "features": [],
    "habitats": [],
    "tips": [],
    "links": [],
    "lastUpdated": null,
    "howToBird": null
  },
  {
    "locId": "L612513",
    "name": "Murray Lake",
    "lat": 43.0435,
    "lng": -85.38007,
    "numSpecies": 102,
    "latestObs": "2026-03-08 11:15",
    "knowledge": null,
    "parking": null,
    "hours": null,
    "fee": null,
    "features": [],
    "habitats": [],
    "tips": [],
    "links": [],
    "lastUpdated": null,
    "howToBird": null
  },
  {
    "locId": "L613502",
    "name": "Muskrat Lake",
    "lat": 43.101,
    "lng": -85.39054,
    "numSpecies": 41,
    "latestObs": "2025-06-15 07:24",
    "knowledge": null,
    "parking": null,
    "hours": null,
    "fee": null,
    "features": [],
    "habitats": [],
    "tips": [],
    "links": [],
    "lastUpdated": null,
    "howToBird": null
  },
  {
    "locId": "L1320476",
    "name": "Myers Lake Park",
    "lat": 43.1392619,
    "lng": -85.488224,
    "numSpecies": 78,
    "latestObs": "2026-03-17 15:15",
    "knowledge": null,
    "parking": null,
    "hours": null,
    "fee": null,
    "features": [],
    "habitats": [],
    "tips": [],
    "links": [],
    "lastUpdated": null,
    "howToBird": null
  },
  {
    "locId": "L32543415",
    "name": "Northeast Park",
    "lat": 42.927045,
    "lng": -85.55192,
    "numSpecies": 88,
    "latestObs": "2026-03-08 15:23",
    "knowledge": null,
    "parking": null,
    "hours": null,
    "fee": null,
    "features": [],
    "habitats": [],
    "tips": [],
    "links": [],
    "lastUpdated": null,
    "howToBird": null
  },
  {
    "locId": "L2788923",
    "name": "Oak Hill Cemetery",
    "lat": 42.9411757,
    "lng": -85.6517717,
    "numSpecies": 58,
    "latestObs": "2025-11-02 10:25",
    "knowledge": null,
    "parking": null,
    "hours": null,
    "fee": null,
    "features": [],
    "habitats": [],
    "tips": [],
    "links": [],
    "lastUpdated": null,
    "howToBird": null
  },
  {
    "locId": "L793145",
    "name": "Ody Brook Nature Sanctuary (open to public)",
    "lat": 43.2015314,
    "lng": -85.5494535,
    "numSpecies": 133,
    "latestObs": "2025-09-23 13:32",
    "knowledge": null,
    "parking": null,
    "hours": null,
    "fee": null,
    "features": [],
    "habitats": [],
    "tips": [],
    "links": [],
    "lastUpdated": null,
    "howToBird": null
  },
  {
    "locId": "L12131810",
    "name": "Old Farm Park",
    "lat": 42.876219,
    "lng": -85.6079805,
    "numSpecies": 43,
    "latestObs": "2025-07-31 20:32",
    "knowledge": null,
    "parking": null,
    "hours": null,
    "fee": null,
    "features": [],
    "habitats": [],
    "tips": [],
    "links": [],
    "lastUpdated": null,
    "howToBird": null
  },
  {
    "locId": "L829210",
    "name": "Palmer Park",
    "lat": 42.8772692,
    "lng": -85.6949472,
    "numSpecies": 139,
    "latestObs": "2026-03-07 12:38",
    "knowledge": null,
    "parking": null,
    "hours": null,
    "fee": null,
    "features": [],
    "habitats": [],
    "tips": [],
    "links": [],
    "lastUpdated": null,
    "howToBird": null
  },
  {
    "locId": "L860358",
    "name": "Paris Park",
    "lat": 42.8562295,
    "lng": -85.5841141,
    "numSpecies": 143,
    "latestObs": "2026-03-15 15:34",
    "knowledge": null,
    "parking": null,
    "hours": null,
    "fee": null,
    "features": [],
    "habitats": [],
    "tips": [],
    "links": [],
    "lastUpdated": null,
    "howToBird": null
  },
  {
    "locId": "L2230648",
    "name": "Paul Henry Thornapple Trail--76th St. SE to 84th St. SE",
    "lat": 42.8200844,
    "lng": -85.5542192,
    "numSpecies": 125,
    "latestObs": "2025-09-23 10:40",
    "knowledge": null,
    "parking": null,
    "hours": null,
    "fee": null,
    "features": [],
    "habitats": [],
    "tips": [],
    "links": [],
    "lastUpdated": null,
    "howToBird": null
  },
  {
    "locId": "L13749514",
    "name": "Penny Ave. fields (from 21 Mile to 22 Mile)",
    "lat": 43.2862592,
    "lng": -85.3923427,
    "numSpecies": 79,
    "latestObs": "2026-03-16 12:20",
    "knowledge": null,
    "parking": null,
    "hours": null,
    "fee": null,
    "features": [],
    "habitats": [],
    "tips": [],
    "links": [],
    "lastUpdated": null,
    "howToBird": null
  },
  {
    "locId": "L609358",
    "name": "Pickerel Lake Nature Preserve",
    "lat": 43.0741545,
    "lng": -85.4690409,
    "numSpecies": 180,
    "latestObs": "2026-03-17 19:05",
    "knowledge": null,
    "parking": null,
    "hours": null,
    "fee": null,
    "features": [],
    "habitats": [],
    "tips": [],
    "links": [],
    "lastUpdated": null,
    "howToBird": null
  },
  {
    "locId": "L3004709",
    "name": "Pickett Park",
    "lat": 43.1130142,
    "lng": -85.56427,
    "numSpecies": 59,
    "latestObs": "2025-10-02 17:08",
    "knowledge": null,
    "parking": null,
    "hours": null,
    "fee": null,
    "features": [],
    "habitats": [],
    "tips": [],
    "links": [],
    "lastUpdated": null,
    "howToBird": null
  },
  {
    "locId": "L1168933",
    "name": "Plaster Creek Park",
    "lat": 42.9196562,
    "lng": -85.6728673,
    "numSpecies": 144,
    "latestObs": "2026-03-16 13:22",
    "knowledge": null,
    "parking": null,
    "hours": null,
    "fee": null,
    "features": [],
    "habitats": [],
    "tips": [],
    "links": [],
    "lastUpdated": null,
    "howToBird": null
  },
  {
    "locId": "L12903966",
    "name": "Plaster Creek Trail--28th St. to Division Ave.",
    "lat": 42.916664,
    "lng": -85.654251,
    "numSpecies": 135,
    "latestObs": "2026-03-18 15:00",
    "knowledge": null,
    "parking": null,
    "hours": null,
    "fee": null,
    "features": [],
    "habitats": [],
    "tips": [],
    "links": [],
    "lastUpdated": null,
    "howToBird": null
  },
  {
    "locId": "L1154987",
    "name": "Prairie Wolf Park",
    "lat": 42.8065237,
    "lng": -85.6278652,
    "numSpecies": 152,
    "latestObs": "2026-03-11 11:33",
    "knowledge": null,
    "parking": null,
    "hours": null,
    "fee": null,
    "features": [],
    "habitats": [],
    "tips": [],
    "links": [],
    "lastUpdated": null,
    "howToBird": null
  },
  {
    "locId": "L613091",
    "name": "Pratt Lake",
    "lat": 42.88517,
    "lng": -85.3193,
    "numSpecies": 87,
    "latestObs": "2025-06-02 11:06",
    "knowledge": null,
    "parking": null,
    "hours": null,
    "fee": null,
    "features": [],
    "habitats": [],
    "tips": [],
    "links": [],
    "lastUpdated": null,
    "howToBird": null
  },
  {
    "locId": "L860359",
    "name": "Provin Trails Park",
    "lat": 43.0262857,
    "lng": -85.5984478,
    "numSpecies": 87,
    "latestObs": "2026-02-17 12:58",
    "knowledge": null,
    "parking": null,
    "hours": null,
    "fee": null,
    "features": [],
    "habitats": [],
    "tips": [],
    "links": [],
    "lastUpdated": null,
    "howToBird": null
  },
  {
    "locId": "L350111",
    "name": "Reeds Lake",
    "lat": 42.9538729,
    "lng": -85.6082752,
    "numSpecies": 232,
    "latestObs": "2026-03-18 09:57",
    "knowledge": null,
    "parking": null,
    "hours": null,
    "fee": null,
    "features": [],
    "habitats": [],
    "tips": [],
    "links": [],
    "lastUpdated": null,
    "howToBird": null
  },
  {
    "locId": "L1574235",
    "name": "Reeds Lake--Reeds Lake Blvd. SE",
    "lat": 42.9463865,
    "lng": -85.5957535,
    "numSpecies": 193,
    "latestObs": "2026-03-17 09:59",
    "knowledge": null,
    "parking": null,
    "hours": null,
    "fee": null,
    "features": [],
    "habitats": [],
    "tips": [],
    "links": [],
    "lastUpdated": null,
    "howToBird": null
  },
  {
    "locId": "L871188",
    "name": "Richmond Park",
    "lat": 42.9943931,
    "lng": -85.695709,
    "numSpecies": 136,
    "latestObs": "2025-09-27 08:26",
    "knowledge": null,
    "parking": null,
    "hours": null,
    "fee": null,
    "features": [],
    "habitats": [],
    "tips": [],
    "links": [],
    "lastUpdated": null,
    "howToBird": null
  },
  {
    "locId": "L612015",
    "name": "Riverside Park",
    "lat": 43.0123043,
    "lng": -85.6695843,
    "numSpecies": 160,
    "latestObs": "2026-03-09 17:43",
    "knowledge": null,
    "parking": null,
    "hours": null,
    "fee": null,
    "features": [],
    "habitats": [],
    "tips": [],
    "links": [],
    "lastUpdated": null,
    "howToBird": null
  },
  {
    "locId": "L1112131",
    "name": "Riverside Park--North",
    "lat": 43.0190143,
    "lng": -85.6630154,
    "numSpecies": 100,
    "latestObs": "2026-03-03 14:52",
    "knowledge": null,
    "parking": null,
    "hours": null,
    "fee": null,
    "features": [],
    "habitats": [],
    "tips": [],
    "links": [],
    "lastUpdated": null,
    "howToBird": null
  },
  {
    "locId": "L1112837",
    "name": "Riverside Park--South",
    "lat": 42.9995627,
    "lng": -85.6716871,
    "numSpecies": 106,
    "latestObs": "2026-03-06 16:59",
    "knowledge": null,
    "parking": null,
    "hours": null,
    "fee": null,
    "features": [],
    "habitats": [],
    "tips": [],
    "links": [],
    "lastUpdated": null,
    "howToBird": null
  },
  {
    "locId": "L918761",
    "name": "Rivertown Crossings Mall Ponds",
    "lat": 42.8775491,
    "lng": -85.7529259,
    "numSpecies": 113,
    "latestObs": "2026-03-08 19:53",
    "knowledge": null,
    "parking": null,
    "hours": null,
    "fee": null,
    "features": [],
    "habitats": [],
    "tips": [],
    "links": [],
    "lastUpdated": null,
    "howToBird": null
  },
  {
    "locId": "L18563640",
    "name": "Robinette Trails",
    "lat": 43.0274795,
    "lng": -85.5937726,
    "numSpecies": 21,
    "latestObs": "2025-11-03 08:46",
    "knowledge": null,
    "parking": null,
    "hours": null,
    "fee": null,
    "features": [],
    "habitats": [],
    "tips": [],
    "links": [],
    "lastUpdated": null,
    "howToBird": null
  },
  {
    "locId": "L18678844",
    "name": "Robinette Trails (north)",
    "lat": 43.0313135,
    "lng": -85.5927725,
    "numSpecies": 61,
    "latestObs": "2025-12-27 08:29",
    "knowledge": null,
    "parking": null,
    "hours": null,
    "fee": null,
    "features": [],
    "habitats": [],
    "tips": [],
    "links": [],
    "lastUpdated": null,
    "howToBird": null
  },
  {
    "locId": "L1657855",
    "name": "Rockford Dam",
    "lat": 43.1204034,
    "lng": -85.5618721,
    "numSpecies": 104,
    "latestObs": "2026-02-16 15:43",
    "knowledge": null,
    "parking": null,
    "hours": null,
    "fee": null,
    "features": [],
    "habitats": [],
    "tips": [],
    "links": [],
    "lastUpdated": null,
    "howToBird": null
  },
  {
    "locId": "L15490130",
    "name": "Rogers Park",
    "lat": 43.1628809,
    "lng": -85.7096683,
    "numSpecies": 27,
    "latestObs": "2024-08-16 10:39",
    "knowledge": null,
    "parking": null,
    "hours": null,
    "fee": null,
    "features": [],
    "habitats": [],
    "tips": [],
    "links": [],
    "lastUpdated": null,
    "howToBird": null
  },
  {
    "locId": "L28714889",
    "name": "Rogue River Outlook",
    "lat": 43.1233611,
    "lng": -85.5613952,
    "numSpecies": 79,
    "latestObs": "2026-03-12 12:25",
    "knowledge": null,
    "parking": null,
    "hours": null,
    "fee": null,
    "features": [],
    "habitats": [],
    "tips": [],
    "links": [],
    "lastUpdated": null,
    "howToBird": null
  },
  {
    "locId": "L902559",
    "name": "Rogue River Park",
    "lat": 43.0818344,
    "lng": -85.5994391,
    "numSpecies": 165,
    "latestObs": "2026-03-17 09:20",
    "knowledge": null,
    "parking": null,
    "hours": null,
    "fee": null,
    "features": [],
    "habitats": [],
    "tips": [],
    "links": [],
    "lastUpdated": null,
    "howToBird": null
  },
  {
    "locId": "L1423517",
    "name": "Rogue River SGA (general; please use more specific hotspot)",
    "lat": 43.2342826,
    "lng": -85.6813208,
    "numSpecies": 131,
    "latestObs": "2025-10-13 16:22",
    "knowledge": null,
    "parking": null,
    "hours": null,
    "fee": null,
    "features": [],
    "habitats": [],
    "tips": [],
    "links": [],
    "lastUpdated": null,
    "howToBird": null
  },
  {
    "locId": "L3632633",
    "name": "Rogue River SGA-- two track north of 20 Mile Rd.",
    "lat": 43.2692978,
    "lng": -85.6994836,
    "numSpecies": 76,
    "latestObs": "2026-01-17 14:00",
    "knowledge": null,
    "parking": null,
    "hours": null,
    "fee": null,
    "features": [],
    "habitats": [],
    "tips": [],
    "links": [],
    "lastUpdated": null,
    "howToBird": null
  },
  {
    "locId": "L3631317",
    "name": "Rogue River SGA--Clear Lake",
    "lat": 43.256586,
    "lng": -85.6691265,
    "numSpecies": 84,
    "latestObs": "2026-01-17 14:47",
    "knowledge": null,
    "parking": null,
    "hours": null,
    "fee": null,
    "features": [],
    "habitats": [],
    "tips": [],
    "links": [],
    "lastUpdated": null,
    "howToBird": null
  },
  {
    "locId": "L3632723",
    "name": "Rogue River SGA--Spring Creek trail",
    "lat": 43.2515105,
    "lng": -85.694982,
    "numSpecies": 93,
    "latestObs": "2026-02-28 10:41",
    "knowledge": null,
    "parking": null,
    "hours": null,
    "fee": null,
    "features": [],
    "habitats": [],
    "tips": [],
    "links": [],
    "lastUpdated": null,
    "howToBird": null
  },
  {
    "locId": "L3632298",
    "name": "Rogue River SGA--Spring Lake",
    "lat": 43.2595219,
    "lng": -85.6750921,
    "numSpecies": 73,
    "latestObs": "2025-09-19 15:21",
    "knowledge": null,
    "parking": null,
    "hours": null,
    "fee": null,
    "features": [],
    "habitats": [],
    "tips": [],
    "links": [],
    "lastUpdated": null,
    "howToBird": null
  },
  {
    "locId": "L874305",
    "name": "Rogue River at Division Ave.",
    "lat": 43.13492,
    "lng": -85.67036,
    "numSpecies": 48,
    "latestObs": "2025-05-23 09:29",
    "knowledge": null,
    "parking": null,
    "hours": null,
    "fee": null,
    "features": [],
    "habitats": [],
    "tips": [],
    "links": [],
    "lastUpdated": null,
    "howToBird": null
  },
  {
    "locId": "L14775470",
    "name": "Rogue River at Friske Dr.",
    "lat": 43.1471156,
    "lng": -85.6014639,
    "numSpecies": 77,
    "latestObs": "2026-02-13 11:16",
    "knowledge": null,
    "parking": null,
    "hours": null,
    "fee": null,
    "features": [],
    "habitats": [],
    "tips": [],
    "links": [],
    "lastUpdated": null,
    "howToBird": null
  },
  {
    "locId": "L19156270",
    "name": "Roosevelt Park",
    "lat": 42.9373708,
    "lng": -85.6878192,
    "numSpecies": 21,
    "latestObs": "2024-04-14 09:56",
    "knowledge": null,
    "parking": null,
    "hours": null,
    "fee": null,
    "features": [],
    "habitats": [],
    "tips": [],
    "links": [],
    "lastUpdated": null,
    "howToBird": null
  },
  {
    "locId": "L49366740",
    "name": "Rosa Parks Circle",
    "lat": 42.965646,
    "lng": -85.671542,
    "numSpecies": 12,
    "latestObs": "2026-03-01 00:00",
    "knowledge": null,
    "parking": null,
    "hours": null,
    "fee": null,
    "features": [],
    "habitats": [],
    "tips": [],
    "links": [],
    "lastUpdated": null,
    "howToBird": null
  },
  {
    "locId": "L612510",
    "name": "Roselle Park",
    "lat": 42.98109,
    "lng": -85.53528,
    "numSpecies": 210,
    "latestObs": "2026-03-14 10:42",
    "knowledge": null,
    "parking": null,
    "hours": null,
    "fee": null,
    "features": [],
    "habitats": [],
    "tips": [],
    "links": [],
    "lastUpdated": null,
    "howToBird": null
  },
  {
    "locId": "L5682490",
    "name": "Ruehs Park",
    "lat": 42.839773,
    "lng": -85.479192,
    "numSpecies": 97,
    "latestObs": "2026-02-03 10:57",
    "knowledge": null,
    "parking": null,
    "hours": null,
    "fee": null,
    "features": [],
    "habitats": [],
    "tips": [],
    "links": [],
    "lastUpdated": null,
    "howToBird": null
  },
  {
    "locId": "L7869407",
    "name": "Rum Creek Nature Trail",
    "lat": 43.1235471,
    "lng": -85.5548761,
    "numSpecies": 49,
    "latestObs": "2026-01-13 12:50",
    "knowledge": null,
    "parking": null,
    "hours": null,
    "fee": null,
    "features": [],
    "habitats": [],
    "tips": [],
    "links": [],
    "lastUpdated": null,
    "howToBird": null
  },
  {
    "locId": "L5790856",
    "name": "Saint Jude Wetlands Preserve",
    "lat": 43.0256864,
    "lng": -85.6424725,
    "numSpecies": 71,
    "latestObs": "2026-02-03 12:40",
    "knowledge": null,
    "parking": null,
    "hours": null,
    "fee": null,
    "features": [],
    "habitats": [],
    "tips": [],
    "links": [],
    "lastUpdated": null,
    "howToBird": null
  },
  {
    "locId": "L986500",
    "name": "Saul Lake Bog Nature Preserve",
    "lat": 43.0654391,
    "lng": -85.4120493,
    "numSpecies": 169,
    "latestObs": "2026-03-12 11:01",
    "knowledge": null,
    "parking": null,
    "hours": null,
    "fee": null,
    "features": [],
    "habitats": [],
    "tips": [],
    "links": [],
    "lastUpdated": null,
    "howToBird": null
  },
  {
    "locId": "L717742",
    "name": "Seidman Park",
    "lat": 42.9799116,
    "lng": -85.4657364,
    "numSpecies": 140,
    "latestObs": "2026-03-09 16:20",
    "knowledge": null,
    "parking": null,
    "hours": null,
    "fee": null,
    "features": [],
    "habitats": [],
    "tips": [],
    "links": [],
    "lastUpdated": null,
    "howToBird": null
  },
  {
    "locId": "L1433240",
    "name": "Seidman Park--North Loop",
    "lat": 42.9970096,
    "lng": -85.4708232,
    "numSpecies": 129,
    "latestObs": "2026-03-04 13:35",
    "knowledge": null,
    "parking": null,
    "hours": null,
    "fee": null,
    "features": [],
    "habitats": [],
    "tips": [],
    "links": [],
    "lastUpdated": null,
    "howToBird": null
  },
  {
    "locId": "L9771200",
    "name": "Shadyside Park",
    "lat": 42.8317218,
    "lng": -85.5773765,
    "numSpecies": 74,
    "latestObs": "2026-01-09 15:00",
    "knowledge": null,
    "parking": null,
    "hours": null,
    "fee": null,
    "features": [],
    "habitats": [],
    "tips": [],
    "links": [],
    "lastUpdated": null,
    "howToBird": null
  },
  {
    "locId": "L52845525",
    "name": "Shaffer Avenue Water Tower",
    "lat": 42.9094201,
    "lng": -85.5884835,
    "numSpecies": 8,
    "latestObs": "2026-03-17 18:27",
    "knowledge": null,
    "parking": null,
    "hours": null,
    "fee": null,
    "features": [],
    "habitats": [],
    "tips": [],
    "links": [],
    "lastUpdated": null,
    "howToBird": null
  },
  {
    "locId": "L11711818",
    "name": "Sierrafield Lake",
    "lat": 42.8327719,
    "lng": -85.6942595,
    "numSpecies": 42,
    "latestObs": "2022-09-10 16:10",
    "knowledge": null,
    "parking": null,
    "hours": null,
    "fee": null,
    "features": [],
    "habitats": [],
    "tips": [],
    "links": [],
    "lastUpdated": null,
    "howToBird": null
  },
  {
    "locId": "L9290287",
    "name": "Snow Ave. fluddle",
    "lat": 42.903264,
    "lng": -85.433198,
    "numSpecies": 25,
    "latestObs": "2025-11-28 10:47",
    "knowledge": null,
    "parking": null,
    "hours": null,
    "fee": null,
    "features": [],
    "habitats": [],
    "tips": [],
    "links": [],
    "lastUpdated": null,
    "howToBird": null
  },
  {
    "locId": "L1051503",
    "name": "South Kent Recycling and Waste Center (from 108th St.)",
    "lat": 42.7682429,
    "lng": -85.6810313,
    "numSpecies": 103,
    "latestObs": "2026-03-02 15:27",
    "knowledge": null,
    "parking": null,
    "hours": null,
    "fee": null,
    "features": [],
    "habitats": [],
    "tips": [],
    "links": [],
    "lastUpdated": null,
    "howToBird": null
  },
  {
    "locId": "L13785584",
    "name": "South Riverfront Park",
    "lat": 42.9226981,
    "lng": -85.3680101,
    "numSpecies": 123,
    "latestObs": "2026-01-21 17:09",
    "knowledge": null,
    "parking": null,
    "hours": null,
    "fee": null,
    "features": [],
    "habitats": [],
    "tips": [],
    "links": [],
    "lastUpdated": null,
    "howToBird": null
  },
  {
    "locId": "L860361",
    "name": "Spencer Forest Park",
    "lat": 43.2154477,
    "lng": -85.3181763,
    "numSpecies": 43,
    "latestObs": "2025-09-04 07:45",
    "knowledge": null,
    "parking": null,
    "hours": null,
    "fee": null,
    "features": [],
    "habitats": [],
    "tips": [],
    "links": [],
    "lastUpdated": null,
    "howToBird": null
  },
  {
    "locId": "L1580301",
    "name": "Stanaback Park",
    "lat": 42.8950266,
    "lng": -85.59985,
    "numSpecies": 116,
    "latestObs": "2026-01-01 15:33",
    "knowledge": null,
    "parking": null,
    "hours": null,
    "fee": null,
    "features": [],
    "habitats": [],
    "tips": [],
    "links": [],
    "lastUpdated": null,
    "howToBird": null
  },
  {
    "locId": "L3004839",
    "name": "Steelcase prairie",
    "lat": 42.853439,
    "lng": -85.5637758,
    "numSpecies": 51,
    "latestObs": "2025-12-25 12:45",
    "knowledge": null,
    "parking": null,
    "hours": null,
    "fee": null,
    "features": [],
    "habitats": [],
    "tips": [],
    "links": [],
    "lastUpdated": null,
    "howToBird": null
  },
  {
    "locId": "L5008162",
    "name": "Stoney Lake Walking Path",
    "lat": 42.9268982,
    "lng": -85.348497,
    "numSpecies": 63,
    "latestObs": "2025-05-10 19:17",
    "knowledge": null,
    "parking": null,
    "hours": null,
    "fee": null,
    "features": [],
    "habitats": [],
    "tips": [],
    "links": [],
    "lastUpdated": null,
    "howToBird": null
  },
  {
    "locId": "L12088180",
    "name": "The Highlands",
    "lat": 42.988315,
    "lng": -85.735018,
    "numSpecies": 139,
    "latestObs": "2026-03-14 19:07",
    "knowledge": null,
    "parking": null,
    "hours": null,
    "fee": null,
    "features": [],
    "habitats": [],
    "tips": [],
    "links": [],
    "lastUpdated": null,
    "howToBird": null
  },
  {
    "locId": "L5065157",
    "name": "Thornapple River--84th St. dam",
    "lat": 42.811235,
    "lng": -85.484046,
    "numSpecies": 86,
    "latestObs": "2026-03-08 16:13",
    "knowledge": null,
    "parking": null,
    "hours": null,
    "fee": null,
    "features": [],
    "habitats": [],
    "tips": [],
    "links": [],
    "lastUpdated": null,
    "howToBird": null
  },
  {
    "locId": "L4061069",
    "name": "Thornapple Riverbend Green Space",
    "lat": 42.8353257,
    "lng": -85.4796249,
    "numSpecies": 133,
    "latestObs": "2026-03-14 18:10",
    "knowledge": null,
    "parking": null,
    "hours": null,
    "fee": null,
    "features": [],
    "habitats": [],
    "tips": [],
    "links": [],
    "lastUpdated": null,
    "howToBird": null
  },
  {
    "locId": "L12250737",
    "name": "Tiffany Ave. marsh",
    "lat": 43.0491303,
    "lng": -85.4308369,
    "numSpecies": 49,
    "latestObs": "2025-12-27 08:20",
    "knowledge": null,
    "parking": null,
    "hours": null,
    "fee": null,
    "features": [],
    "habitats": [],
    "tips": [],
    "links": [],
    "lastUpdated": null,
    "howToBird": null
  },
  {
    "locId": "L860363",
    "name": "Townsend Park",
    "lat": 43.0590772,
    "lng": -85.4645519,
    "numSpecies": 112,
    "latestObs": "2026-03-09 10:32",
    "knowledge": null,
    "parking": null,
    "hours": null,
    "fee": null,
    "features": [],
    "habitats": [],
    "tips": [],
    "links": [],
    "lastUpdated": null,
    "howToBird": null
  },
  {
    "locId": "L4061066",
    "name": "Two Rivers Green Space",
    "lat": 42.7743614,
    "lng": -85.4568905,
    "numSpecies": 130,
    "latestObs": "2026-03-08 15:48",
    "knowledge": null,
    "parking": null,
    "hours": null,
    "fee": null,
    "features": [],
    "habitats": [],
    "tips": [],
    "links": [],
    "lastUpdated": null,
    "howToBird": null
  },
  {
    "locId": "L611966",
    "name": "Versluis Park",
    "lat": 43.06006,
    "lng": -85.57819,
    "numSpecies": 135,
    "latestObs": "2026-03-14 09:35",
    "knowledge": null,
    "parking": null,
    "hours": null,
    "fee": null,
    "features": [],
    "habitats": [],
    "tips": [],
    "links": [],
    "lastUpdated": null,
    "howToBird": null
  },
  {
    "locId": "L7568218",
    "name": "Veterans Memorial Park",
    "lat": 42.9638188,
    "lng": -85.6664836,
    "numSpecies": 28,
    "latestObs": "2026-02-21 16:25",
    "knowledge": null,
    "parking": null,
    "hours": null,
    "fee": null,
    "features": [],
    "habitats": [],
    "tips": [],
    "links": [],
    "lastUpdated": null,
    "howToBird": null
  },
  {
    "locId": "L612514",
    "name": "Wabasis Lake Park",
    "lat": 43.134946,
    "lng": -85.3908684,
    "numSpecies": 151,
    "latestObs": "2026-02-28 11:39",
    "knowledge": null,
    "parking": null,
    "hours": null,
    "fee": null,
    "features": [],
    "habitats": [],
    "tips": [],
    "links": [],
    "lastUpdated": null,
    "howToBird": null
  },
  {
    "locId": "L11213609",
    "name": "Wabasis Lake Park--Scenic Overlook",
    "lat": 43.139953,
    "lng": -85.395363,
    "numSpecies": 91,
    "latestObs": "2026-03-08 10:54",
    "knowledge": null,
    "parking": null,
    "hours": null,
    "fee": null,
    "features": [],
    "habitats": [],
    "tips": [],
    "links": [],
    "lastUpdated": null,
    "howToBird": null
  },
  {
    "locId": "L1253909",
    "name": "Wahlfield Park",
    "lat": 43.0895133,
    "lng": -85.694561,
    "numSpecies": 137,
    "latestObs": "2026-02-10 14:27",
    "knowledge": null,
    "parking": null,
    "hours": null,
    "fee": null,
    "features": [],
    "habitats": [],
    "tips": [],
    "links": [],
    "lastUpdated": null,
    "howToBird": null
  },
  {
    "locId": "L9075272",
    "name": "Wedgwood Park",
    "lat": 42.9034324,
    "lng": -85.7641527,
    "numSpecies": 70,
    "latestObs": "2026-03-18 14:07",
    "knowledge": null,
    "parking": null,
    "hours": null,
    "fee": null,
    "features": [],
    "habitats": [],
    "tips": [],
    "links": [],
    "lastUpdated": null,
    "howToBird": null
  },
  {
    "locId": "L14152027",
    "name": "West Side Christian School/Brian Dyk Nature Preserve",
    "lat": 42.982422,
    "lng": -85.7211456,
    "numSpecies": 55,
    "latestObs": "2025-12-23 12:14",
    "knowledge": null,
    "parking": null,
    "hours": null,
    "fee": null,
    "features": [],
    "habitats": [],
    "tips": [],
    "links": [],
    "lastUpdated": null,
    "howToBird": null
  },
  {
    "locId": "L984503",
    "name": "Wetland at Wabasis Creek and 12 Mile Rd.",
    "lat": 43.1472584,
    "lng": -85.3972435,
    "numSpecies": 100,
    "latestObs": "2026-02-28 12:30",
    "knowledge": null,
    "parking": null,
    "hours": null,
    "fee": null,
    "features": [],
    "habitats": [],
    "tips": [],
    "links": [],
    "lastUpdated": null,
    "howToBird": null
  },
  {
    "locId": "L874547",
    "name": "Wetland east of Hotel Ave.",
    "lat": 42.9091974,
    "lng": -85.5359674,
    "numSpecies": 167,
    "latestObs": "2026-03-14 15:39",
    "knowledge": null,
    "parking": null,
    "hours": null,
    "fee": null,
    "features": [],
    "habitats": [],
    "tips": [],
    "links": [],
    "lastUpdated": null,
    "howToBird": null
  },
  {
    "locId": "L987572",
    "name": "Wetland west of Hotel Ave.",
    "lat": 42.905111,
    "lng": -85.5420345,
    "numSpecies": 116,
    "latestObs": "2026-03-08 16:36",
    "knowledge": null,
    "parking": null,
    "hours": null,
    "fee": null,
    "features": [],
    "habitats": [],
    "tips": [],
    "links": [],
    "lastUpdated": null,
    "howToBird": null
  },
  {
    "locId": "L860365",
    "name": "White Pine Park",
    "lat": 43.212317,
    "lng": -85.3515793,
    "numSpecies": 57,
    "latestObs": "2024-11-22 09:36",
    "knowledge": null,
    "parking": null,
    "hours": null,
    "fee": null,
    "features": [],
    "habitats": [],
    "tips": [],
    "links": [],
    "lastUpdated": null,
    "howToBird": null
  },
  {
    "locId": "L12220782",
    "name": "White Pine Trail--Belmont to Rockford",
    "lat": 43.1012181,
    "lng": -85.5861443,
    "numSpecies": 64,
    "latestObs": "2026-02-13 17:00",
    "knowledge": null,
    "parking": null,
    "hours": null,
    "fee": null,
    "features": [],
    "habitats": [],
    "tips": [],
    "links": [],
    "lastUpdated": null,
    "howToBird": null
  },
  {
    "locId": "L14405054",
    "name": "White Pine Trail--Cedar Springs Trailhead",
    "lat": 43.2254068,
    "lng": -85.5535991,
    "numSpecies": 71,
    "latestObs": "2025-07-23 18:49",
    "knowledge": null,
    "parking": null,
    "hours": null,
    "fee": null,
    "features": [],
    "habitats": [],
    "tips": [],
    "links": [],
    "lastUpdated": null,
    "howToBird": null
  },
  {
    "locId": "L9036618",
    "name": "Wilcox Park",
    "lat": 42.9601959,
    "lng": -85.6321549,
    "numSpecies": 96,
    "latestObs": "2025-10-11 11:07",
    "knowledge": null,
    "parking": null,
    "hours": null,
    "fee": null,
    "features": [],
    "habitats": [],
    "tips": [],
    "links": [],
    "lastUpdated": null,
    "howToBird": null
  },
  {
    "locId": "L933280",
    "name": "Wittenbach/Wege Center",
    "lat": 42.9601443,
    "lng": -85.3791761,
    "numSpecies": 136,
    "latestObs": "2026-03-14 11:35",
    "knowledge": null,
    "parking": null,
    "hours": null,
    "fee": null,
    "features": [],
    "habitats": [],
    "tips": [],
    "links": [],
    "lastUpdated": null,
    "howToBird": null
  },
  {
    "locId": "L853051",
    "name": "stakeout Black-throated Gray Warbler 1345 Monroe Ave. NW (2007)",
    "lat": 42.9873209,
    "lng": -85.6719017,
    "numSpecies": 23,
    "latestObs": "2025-03-09 11:22",
    "knowledge": null,
    "parking": null,
    "hours": null,
    "fee": null,
    "features": [],
    "habitats": [],
    "tips": [],
    "links": [],
    "lastUpdated": null,
    "howToBird": null
  },
  {
    "locId": "L1350576",
    "name": "stakeout Rufous Hummingbird, Lowell (2011/2012)",
    "lat": 42.9350861,
    "lng": -85.3512163,
    "numSpecies": 9,
    "latestObs": "2012-01-08 00:00",
    "knowledge": null,
    "parking": null,
    "hours": null,
    "fee": null,
    "features": [],
    "habitats": [],
    "tips": [],
    "links": [],
    "lastUpdated": null,
    "howToBird": null
  },
  {
    "locId": "L10269520",
    "name": "stakeout Rufous/Allen's Hummingbird 6373 Mesa Dr NE, Rockford (2019)",
    "lat": 43.076361,
    "lng": -85.576093,
    "numSpecies": 15,
    "latestObs": "2019-12-10 14:33",
    "knowledge": null,
    "parking": null,
    "hours": null,
    "fee": null,
    "features": [],
    "habitats": [],
    "tips": [],
    "links": [],
    "lastUpdated": null,
    "howToBird": null
  },
  {
    "locId": "L13773763",
    "name": "stakeout Varied Thrush (undisclosed, no access; 2021), Lowell",
    "lat": 42.933586,
    "lng": -85.341817,
    "numSpecies": 41,
    "latestObs": "2026-03-17 15:15",
    "knowledge": null,
    "parking": null,
    "hours": null,
    "fee": null,
    "features": [],
    "habitats": [],
    "tips": [],
    "links": [],
    "lastUpdated": null,
    "howToBird": null
  },
  {
    "locId": "L12574830",
    "name": "stakeout Varied Thrush, 2615 Shagbark Ave SE (park along road; 2020)",
    "lat": 42.916369,
    "lng": -85.493804,
    "numSpecies": 41,
    "latestObs": "2023-11-25 09:59",
    "knowledge": null,
    "parking": null,
    "hours": null,
    "fee": null,
    "features": [],
    "habitats": [],
    "tips": [],
    "links": [],
    "lastUpdated": null,
    "howToBird": null
  }
]