{
  "total_hotspots": 68,
  "generated_at": "2026-03-24T01:04:53.755394Z",
  "hotspots": [
    {
      "locality_id": "L1137401",
      "name": "Molasses River Flooding WMA",
      "file": "hotspots/L1137401_molasses_river_flooding_wma.json",
      "total_checklists": 193,
      "coordinates": {
        "latitude": 43.9493273,
        "longitude": -84.1872883
      }
    },
    {
      "locality_id": "L11057538",
      "name": "Wixom Lake--South",
      "file": "hotspots/L11057538_wixom_lake_south.json",
      "total_checklists": 176,
      "coordinates": {
        "latitude": 43.81647,
        "longitude": -84.386767
      }
    },
    {
      "locality_id": "L3128011",
      "name": "Wixom Lake--Dundas Rd. access",
      "file": "hotspots/L3128011_wixom_lake_dundas_rd_access.json",
      "total_checklists": 105,
      "coordinates": {
        "latitude": 43.8330331,
        "longitude": -84.3852621
      }
    },
    {
      "locality_id": "L27826270",
      "name": "Lake Lancer/Lake Lancelot",
      "file": "hotspots/L27826270_lake_lancer_lake_lancelot.json",
      "total_checklists": 71,
      "coordinates": {
        "latitude": 44.113845,
        "longitude": -84.444713
      }
    },
    {
      "locality_id": "L11060198",
      "name": "Beaverton Cemetery",
      "file": "hotspots/L11060198_beaverton_cemetery.json",
      "total_checklists": 57,
      "coordinates": {
        "latitude": 43.88331,
        "longitude": -84.50017
      }
    },
    {
      "locality_id": "L29093590",
      "name": "North Gladwin plains--Shell Rd",
      "file": "hotspots/L29093590_north_gladwin_plains_shell_rd.json",
      "total_checklists": 51,
      "coordinates": {
        "latitude": 44.0473439,
        "longitude": -84.4472295
      }
    },
    {
      "locality_id": "L3739472",
      "name": "Gladwin SF--Katzer Rd. wetland",
      "file": "hotspots/L3739472_gladwin_sf_katzer_rd_wetland.json",
      "total_checklists": 51,
      "coordinates": {
        "latitude": 43.8952058,
        "longitude": -84.2308339
      }
    },
    {
      "locality_id": "L3766087",
      "name": "Bentley Marsh Flooding WMA",
      "file": "hotspots/L3766087_bentley_marsh_flooding_wma.json",
      "total_checklists": 51,
      "coordinates": {
        "latitude": 43.9947596,
        "longitude": -84.1838276
      }
    },
    {
      "locality_id": "L11059488",
      "name": "Pratt Lake boat access site",
      "file": "hotspots/L11059488_pratt_lake_boat_access_site.json",
      "total_checklists": 50,
      "coordinates": {
        "latitude": 44.024341,
        "longitude": -84.553644
      }
    },
    {
      "locality_id": "L10428216",
      "name": "Gladwin City North Park",
      "file": "hotspots/L10428216_gladwin_city_north_park.json",
      "total_checklists": 49,
      "coordinates": {
        "latitude": 43.986694,
        "longitude": -84.501614
      }
    },
    {
      "locality_id": "L11058596",
      "name": "Butman Twp. Sewage Ponds (view from road)",
      "file": "hotspots/L11058596_butman_twp_sewage_ponds_view_from_road.json",
      "total_checklists": 39,
      "coordinates": {
        "latitude": 44.116766,
        "longitude": -84.420838
      }
    },
    {
      "locality_id": "L11059912",
      "name": "Gladwin City Park",
      "file": "hotspots/L11059912_gladwin_city_park.json",
      "total_checklists": 39,
      "coordinates": {
        "latitude": 43.97869,
        "longitude": -84.49139
      }
    },
    {
      "locality_id": "L10429688",
      "name": "Butman Rd. -- bridge",
      "file": "hotspots/L10429688_butman_rd_bridge.json",
      "total_checklists": 32,
      "coordinates": {
        "latitude": 44.10821,
        "longitude": -84.467811
      }
    },
    {
      "locality_id": "L10427346",
      "name": "Ross Lake Park",
      "file": "hotspots/L10427346_ross_lake_park.json",
      "total_checklists": 31,
      "coordinates": {
        "latitude": 43.886098,
        "longitude": -84.49107
      }
    },
    {
      "locality_id": "L10426888",
      "name": "Billings Twp. fields",
      "file": "hotspots/L10426888_billings_twp_fields.json",
      "total_checklists": 30,
      "coordinates": {
        "latitude": 43.857469,
        "longitude": -84.347702
      }
    },
    {
      "locality_id": "L10426947",
      "name": "Billings Twp. boat launch",
      "file": "hotspots/L10426947_billings_twp_boat_launch.json",
      "total_checklists": 30,
      "coordinates": {
        "latitude": 43.8602658,
        "longitude": -84.3275648
      }
    },
    {
      "locality_id": "L3701762",
      "name": "Gladwin Co. RA",
      "file": "hotspots/L3701762_gladwin_co_ra.json",
      "total_checklists": 27,
      "coordinates": {
        "latitude": 44.0126094,
        "longitude": -84.5498854
      }
    },
    {
      "locality_id": "L10427289",
      "name": "Beaverton Dam",
      "file": "hotspots/L10427289_beaverton_dam.json",
      "total_checklists": 27,
      "coordinates": {
        "latitude": 43.884196,
        "longitude": -84.483282
      }
    },
    {
      "locality_id": "L14455829",
      "name": "Butman Rd.--boat launch",
      "file": "hotspots/L14455829_butman_rd_boat_launch.json",
      "total_checklists": 25,
      "coordinates": {
        "latitude": 44.1105086,
        "longitude": -84.4673898
      }
    },
    {
      "locality_id": "L26689714",
      "name": "Wiggins Lake boat access site",
      "file": "hotspots/L26689714_wiggins_lake_boat_access_site.json",
      "total_checklists": 24,
      "coordinates": {
        "latitude": 44.00272,
        "longitude": -84.532957
      }
    },
    {
      "locality_id": "L9453591",
      "name": "George and Sue Lane Preserve",
      "file": "hotspots/L9453591_george_and_sue_lane_preserve.json",
      "total_checklists": 21,
      "coordinates": {
        "latitude": 44.0695977,
        "longitude": -84.5660865
      }
    },
    {
      "locality_id": "L15962171",
      "name": "Gladwin SF--Lame Duck Foot Access Area",
      "file": "hotspots/L15962171_gladwin_sf_lame_duck_foot_access_area.json",
      "total_checklists": 21,
      "coordinates": {
        "latitude": 44.100467,
        "longitude": -84.2018953
      }
    },
    {
      "locality_id": "L7799417",
      "name": "House Lake State Forest CG",
      "file": "hotspots/L7799417_house_lake_state_forest_cg.json",
      "total_checklists": 21,
      "coordinates": {
        "latitude": 44.1408903,
        "longitude": -84.5728847
      }
    },
    {
      "locality_id": "L26651159",
      "name": "Gladwin Sewage Ponds (restricted access)",
      "file": "hotspots/L26651159_gladwin_sewage_ponds_restricted_access.json",
      "total_checklists": 17,
      "coordinates": {
        "latitude": 43.968946,
        "longitude": -84.480796
      }
    },
    {
      "locality_id": "L33470651",
      "name": "Billings Township Cemetery",
      "file": "hotspots/L33470651_billings_township_cemetery.json",
      "total_checklists": 17,
      "coordinates": {
        "latitude": 43.872879,
        "longitude": -84.320041
      }
    },
    {
      "locality_id": "L26334441",
      "name": "Tittabawassee River at Highwood Rd.",
      "file": "hotspots/L26334441_tittabawassee_river_at_highwood_rd.json",
      "total_checklists": 16,
      "coordinates": {
        "latitude": 43.927813,
        "longitude": -84.300179
      }
    },
    {
      "locality_id": "L26417617",
      "name": "Gladwin Airport/Gladwin County Fairgrounds",
      "file": "hotspots/L26417617_gladwin_airport_gladwin_county_fairgrounds.json",
      "total_checklists": 15,
      "coordinates": {
        "latitude": 43.974805,
        "longitude": -84.479387
      }
    },
    {
      "locality_id": "L13262318",
      "name": "Tobacco Township Cemetery",
      "file": "hotspots/L13262318_tobacco_township_cemetery.json",
      "total_checklists": 15,
      "coordinates": {
        "latitude": 43.8538403,
        "longitude": -84.4359074
      }
    },
    {
      "locality_id": "L3669118",
      "name": "Gladwin SF--Eastman Rd. terminus",
      "file": "hotspots/L3669118_gladwin_sf_eastman_rd_terminus.json",
      "total_checklists": 14,
      "coordinates": {
        "latitude": 43.9462685,
        "longitude": -84.2418122
      }
    },
    {
      "locality_id": "L36226687",
      "name": "Gladwin SF--N Three Rivers Rd",
      "file": "hotspots/L36226687_gladwin_sf_n_three_rivers_rd.json",
      "total_checklists": 14,
      "coordinates": {
        "latitude": 43.99606,
        "longitude": -84.307466
      }
    },
    {
      "locality_id": "L26672642",
      "name": "Gladwin SF--Center Fireline Trail (north of M-61)",
      "file": "hotspots/L26672642_gladwin_sf_center_fireline_trail_north_of_m_61.json",
      "total_checklists": 13,
      "coordinates": {
        "latitude": 43.993934,
        "longitude": -84.206072
      }
    },
    {
      "locality_id": "L29503602",
      "name": "Gladwin SF--Deer Rd. north of M-61",
      "file": "hotspots/L29503602_gladwin_sf_deer_rd_north_of_m_61.json",
      "total_checklists": 12,
      "coordinates": {
        "latitude": 43.983322,
        "longitude": -84.266252
      }
    },
    {
      "locality_id": "L27821324",
      "name": "Spicer Rd.--bridge",
      "file": "hotspots/L27821324_spicer_rd_bridge.json",
      "total_checklists": 11,
      "coordinates": {
        "latitude": 43.878176,
        "longitude": -84.506147
      }
    },
    {
      "locality_id": "L14547561",
      "name": "Grout Township Cemetery",
      "file": "hotspots/L14547561_grout_township_cemetery.json",
      "total_checklists": 11,
      "coordinates": {
        "latitude": 43.9663091,
        "longitude": -84.5357211
      }
    },
    {
      "locality_id": "L3646941",
      "name": "Gladwin SF--White Feather Rd/Guernsey Creek Tr/Katzer Rd",
      "file": "hotspots/L3646941_gladwin_sf_white_feather_rd_guernsey_creek_tr_katzer_rd.json",
      "total_checklists": 10,
      "coordinates": {
        "latitude": 43.9051286,
        "longitude": -84.2769777
      }
    },
    {
      "locality_id": "L21399192",
      "name": "Gladwin Field Trial Area",
      "file": "hotspots/L21399192_gladwin_field_trial_area.json",
      "total_checklists": 10,
      "coordinates": {
        "latitude": 44.1494591,
        "longitude": -84.5495573
      }
    },
    {
      "locality_id": "L29507560",
      "name": "Trout Lake State Forest CG",
      "file": "hotspots/L29507560_trout_lake_state_forest_cg.json",
      "total_checklists": 10,
      "coordinates": {
        "latitude": 44.134134,
        "longitude": -84.564177
      }
    },
    {
      "locality_id": "L27347678",
      "name": "Gladwin SF--Maple Point Rd. to E. Heil Rd.",
      "file": "hotspots/L27347678_gladwin_sf_maple_point_rd_to_e_heil_rd.json",
      "total_checklists": 9,
      "coordinates": {
        "latitude": 43.958835,
        "longitude": -84.298517
      }
    },
    {
      "locality_id": "L11058287",
      "name": "Secord Dam",
      "file": "hotspots/L11058287_secord_dam.json",
      "total_checklists": 9,
      "coordinates": {
        "latitude": 44.040958,
        "longitude": -84.340777
      }
    },
    {
      "locality_id": "L27810835",
      "name": "Humanson Drain",
      "file": "hotspots/L27810835_humanson_drain.json",
      "total_checklists": 8,
      "coordinates": {
        "latitude": 44.003156,
        "longitude": -84.485248
      }
    },
    {
      "locality_id": "L27822070",
      "name": "Beaverton School Forest Recreation Area",
      "file": "hotspots/L27822070_beaverton_school_forest_recreation_area.json",
      "total_checklists": 8,
      "coordinates": {
        "latitude": 43.899677,
        "longitude": -84.526311
      }
    },
    {
      "locality_id": "L14455863",
      "name": "Lake Four--boat launch",
      "file": "hotspots/L14455863_lake_four_boat_launch.json",
      "total_checklists": 8,
      "coordinates": {
        "latitude": 44.1525786,
        "longitude": -84.447917
      }
    },
    {
      "locality_id": "L29204966",
      "name": "Ridge Cemetery/Sacred Heart Cemetery",
      "file": "hotspots/L29204966_ridge_cemetery_sacred_heart_cemetery.json",
      "total_checklists": 8,
      "coordinates": {
        "latitude": 44.009043,
        "longitude": -84.470319
      }
    },
    {
      "locality_id": "L14455777",
      "name": "North Secord Lake boat access site",
      "file": "hotspots/L14455777_north_secord_lake_boat_access_site.json",
      "total_checklists": 7,
      "coordinates": {
        "latitude": 44.0855603,
        "longitude": -84.3374023
      }
    },
    {
      "locality_id": "L27556700",
      "name": "South Secord Lake boat access site",
      "file": "hotspots/L27556700_south_secord_lake_boat_access_site.json",
      "total_checklists": 6,
      "coordinates": {
        "latitude": 44.068529,
        "longitude": -84.357778
      }
    },
    {
      "locality_id": "L15278871",
      "name": "Meredith Grade",
      "file": "hotspots/L15278871_meredith_grade.json",
      "total_checklists": 5,
      "coordinates": {
        "latitude": 44.1299117,
        "longitude": -84.5956046
      }
    },
    {
      "locality_id": "L27145309",
      "name": "Gladwin SGA--Buckeye Trailhead",
      "file": "hotspots/L27145309_gladwin_sga_buckeye_trailhead.json",
      "total_checklists": 4,
      "coordinates": {
        "latitude": 43.928433,
        "longitude": -84.473592
      }
    },
    {
      "locality_id": "L29506905",
      "name": "Hoister Lake",
      "file": "hotspots/L29506905_hoister_lake.json",
      "total_checklists": 4,
      "coordinates": {
        "latitude": 44.147063,
        "longitude": -84.563154
      }
    },
    {
      "locality_id": "L30221724",
      "name": "McClure Cemetery",
      "file": "hotspots/L30221724_mcclure_cemetery.json",
      "total_checklists": 4,
      "coordinates": {
        "latitude": 44.040945,
        "longitude": -84.407408
      }
    },
    {
      "locality_id": "L30414171",
      "name": "Briggs-Cox Memorial Nature Sanctuary",
      "file": "hotspots/L30414171_briggs_cox_memorial_nature_sanctuary.json",
      "total_checklists": 4,
      "coordinates": {
        "latitude": 43.884392,
        "longitude": -84.216968
      }
    },
    {
      "locality_id": "L31306960",
      "name": "Gladwin SF--Deer Rd south of Estey Rd",
      "file": "hotspots/L31306960_gladwin_sf_deer_rd_south_of_estey_rd.json",
      "total_checklists": 4,
      "coordinates": {
        "latitude": 43.851486,
        "longitude": -84.267008
      }
    },
    {
      "locality_id": "L34947518",
      "name": "Bentley Township Cemetery",
      "file": "hotspots/L34947518_bentley_township_cemetery.json",
      "total_checklists": 4,
      "coordinates": {
        "latitude": 43.904895,
        "longitude": -84.196482
      }
    },
    {
      "locality_id": "L54153397",
      "name": "Billings Township Community Park",
      "file": "hotspots/L54153397_billings_township_community_park.json",
      "total_checklists": 4,
      "coordinates": {
        "latitude": 43.859543,
        "longitude": -84.329575
      }
    },
    {
      "locality_id": "L54524669",
      "name": "Gladwin SF--E Ridge Road",
      "file": "hotspots/L54524669_gladwin_sf_e_ridge_road.json",
      "total_checklists": 4,
      "coordinates": {
        "latitude": 44.0156225,
        "longitude": -84.2795301
      }
    },
    {
      "locality_id": "L57494329",
      "name": "City of Gladwin Clean Water Treatment Plant (do not enter if gate is closed)",
      "file": "hotspots/L57494329_city_of_gladwin_clean_water_treatment_plant_do_not_enter_if_gate_is_closed.json",
      "total_checklists": 4,
      "coordinates": {
        "latitude": 43.977015,
        "longitude": -84.492204
      }
    },
    {
      "locality_id": "L28000800",
      "name": "Meridian Roadside Park",
      "file": "hotspots/L28000800_meridian_roadside_park.json",
      "total_checklists": 3,
      "coordinates": {
        "latitude": 44.091565,
        "longitude": -84.366151
      }
    },
    {
      "locality_id": "L51983125",
      "name": "Trail of Two Cities--Ridley Trailhead",
      "file": "hotspots/L51983125_trail_of_two_cities_ridley_trailhead.json",
      "total_checklists": 3,
      "coordinates": {
        "latitude": 43.969061,
        "longitude": -84.48601
      }
    },
    {
      "locality_id": "L34731194",
      "name": "Streaked Lake",
      "file": "hotspots/L34731194_streaked_lake.json",
      "total_checklists": 2,
      "coordinates": {
        "latitude": 44.130082,
        "longitude": -84.553112
      }
    },
    {
      "locality_id": "L34946109",
      "name": "Bentley Township Park",
      "file": "hotspots/L34946109_bentley_township_park.json",
      "total_checklists": 2,
      "coordinates": {
        "latitude": 43.87032,
        "longitude": -84.204795
      }
    },
    {
      "locality_id": "L52287680",
      "name": "Grass Lake",
      "file": "hotspots/L52287680_grass_lake.json",
      "total_checklists": 2,
      "coordinates": {
        "latitude": 44.1170308,
        "longitude": -84.5853046
      }
    },
    {
      "locality_id": "L55688458",
      "name": "Gladwin SF--Herner Rd",
      "file": "hotspots/L55688458_gladwin_sf_herner_rd.json",
      "total_checklists": 2,
      "coordinates": {
        "latitude": 44.034516,
        "longitude": -84.226282
      }
    },
    {
      "locality_id": "L57932733",
      "name": "Cedar River at Chappel Dam Rd",
      "file": "hotspots/L57932733_cedar_river_at_chappel_dam_rd.json",
      "total_checklists": 2,
      "coordinates": {
        "latitude": 44.005212,
        "longitude": -84.525389
      }
    },
    {
      "locality_id": "L58239414",
      "name": "Gladwin SF--Mosquito Alley Truck Trail",
      "file": "hotspots/L58239414_gladwin_sf_mosquito_alley_truck_trail.json",
      "total_checklists": 2,
      "coordinates": {
        "latitude": 44.019216,
        "longitude": -84.236157
      }
    },
    {
      "locality_id": "L54073436",
      "name": "Gladwin SF--Maple Point Hunter Access Trail",
      "file": "hotspots/L54073436_gladwin_sf_maple_point_hunter_access_trail.json",
      "total_checklists": 1,
      "coordinates": {
        "latitude": 43.949317,
        "longitude": -84.299345
      }
    },
    {
      "locality_id": "L54813383",
      "name": "Clement Twp. Public Beach and Boat Launch",
      "file": "hotspots/L54813383_clement_twp_public_beach_and_boat_launch.json",
      "total_checklists": 1,
      "coordinates": {
        "latitude": 44.090179,
        "longitude": -84.312946
      }
    },
    {
      "locality_id": "L54815410",
      "name": "Bourret Township Cemetery",
      "file": "hotspots/L54815410_bourret_township_cemetery.json",
      "total_checklists": 1,
      "coordinates": {
        "latitude": 44.153854,
        "longitude": -84.220001
      }
    },
    {
      "locality_id": "L57858341",
      "name": "Highland Cemetery",
      "file": "hotspots/L57858341_highland_cemetery.json",
      "total_checklists": 1,
      "coordinates": {
        "latitude": 43.974656,
        "longitude": -84.497185
      }
    },
    {
      "locality_id": "L58242201",
      "name": "Gladwin SF--Secord Dam Rd",
      "file": "hotspots/L58242201_gladwin_sf_secord_dam_rd.json",
      "total_checklists": 1,
      "coordinates": {
        "latitude": 44.04066,
        "longitude": -84.254026
      }
    }
  ]
}