[
  {
    "locId": "L4413665",
    "name": "29 Mile and Omo Rds. mitigated wetlands",
    "lat": 42.7610768,
    "lng": -82.8568697,
    "numSpecies": 160,
    "latestObs": "2026-03-24 13:10",
    "knowledge": null
  },
  {
    "locId": "L23618582",
    "name": "32 Mile Rd.--fluddle",
    "lat": 42.802429,
    "lng": -82.996954,
    "numSpecies": 52,
    "latestObs": "2026-03-07 06:40",
    "knowledge": null
  },
  {
    "locId": "L22331675",
    "name": "9-Mile Boat Launch and Pier",
    "lat": 42.4641271,
    "lng": -82.8773035,
    "numSpecies": 67,
    "latestObs": "2025-10-25 14:13",
    "knowledge": null
  },
  {
    "locId": "L29154022",
    "name": "Alexander Park",
    "lat": 42.4931636,
    "lng": -82.8826396,
    "numSpecies": 36,
    "latestObs": "2026-02-27 15:58",
    "knowledge": null
  },
  {
    "locId": "L9186142",
    "name": "Anchor Bay Woods Preserve",
    "lat": 42.6896972,
    "lng": -82.7205009,
    "numSpecies": 84,
    "latestObs": "2025-12-14 10:13",
    "knowledge": null
  },
  {
    "locId": "L26584591",
    "name": "Bates Park",
    "lat": 42.5348113,
    "lng": -83.0233875,
    "numSpecies": 41,
    "latestObs": "2025-11-28 07:12",
    "knowledge": null
  },
  {
    "locId": "L20799070",
    "name": "Beaver Creek Park",
    "lat": 42.5438838,
    "lng": -83.0636847,
    "numSpecies": 85,
    "latestObs": "2025-05-27 18:51",
    "knowledge": null
  },
  {
    "locId": "L1846994",
    "name": "Brandenburg Park",
    "lat": 42.6660456,
    "lng": -82.7581935,
    "numSpecies": 107,
    "latestObs": "2026-03-22 17:13",
    "knowledge": null
  },
  {
    "locId": "L1870325",
    "name": "Broughton Rd. fields",
    "lat": 42.7169273,
    "lng": -82.9195575,
    "numSpecies": 120,
    "latestObs": "2026-03-07 16:06",
    "knowledge": null
  },
  {
    "locId": "L2647452",
    "name": "Burgess-Shadbush Nature Center",
    "lat": 42.6510806,
    "lng": -83.0700088,
    "numSpecies": 103,
    "latestObs": "2026-03-10 10:54",
    "knowledge": null
  },
  {
    "locId": "L23843056",
    "name": "Busse Park",
    "lat": 42.4837005,
    "lng": -83.0560866,
    "numSpecies": 31,
    "latestObs": "2026-02-15 10:13",
    "knowledge": null
  },
  {
    "locId": "L23213420",
    "name": "Cadillac Memorial Gardens East",
    "lat": 42.5811478,
    "lng": -82.9572858,
    "numSpecies": 42,
    "latestObs": "2025-09-19 13:45",
    "knowledge": null
  },
  {
    "locId": "L3624701",
    "name": "Canal Park",
    "lat": 42.5954104,
    "lng": -82.9165193,
    "numSpecies": 82,
    "latestObs": "2025-12-07 13:04",
    "knowledge": null
  },
  {
    "locId": "L28706794",
    "name": "Champine Park",
    "lat": 42.5108122,
    "lng": -82.8794639,
    "numSpecies": 16,
    "latestObs": "2025-03-18 15:37",
    "knowledge": null
  },
  {
    "locId": "L22878169",
    "name": "Chesterfield Nature Preserve",
    "lat": 42.6366581,
    "lng": -82.8335559,
    "numSpecies": 45,
    "latestObs": "2025-05-22 16:20",
    "knowledge": null
  },
  {
    "locId": "L21610866",
    "name": "Chesterfield Parks and Recreation",
    "lat": 42.6501534,
    "lng": -82.8223121,
    "numSpecies": 47,
    "latestObs": "2026-03-07 14:00",
    "knowledge": null
  },
  {
    "locId": "L15008587",
    "name": "Chesterfield Twp. SGA and surrounding area",
    "lat": 42.7046039,
    "lng": -82.7960364,
    "numSpecies": 149,
    "latestObs": "2026-03-24 11:15",
    "knowledge": null
  },
  {
    "locId": "L26775361",
    "name": "Clinton Grove Cemetery and Lake Cheryl",
    "lat": 42.6050228,
    "lng": -82.9027897,
    "numSpecies": 20,
    "latestObs": "2024-04-19 12:56",
    "knowledge": null
  },
  {
    "locId": "L40692021",
    "name": "Clinton River Heritage Park",
    "lat": 42.6220863,
    "lng": -83.033123,
    "numSpecies": 19,
    "latestObs": "2025-09-26 16:00",
    "knowledge": null
  },
  {
    "locId": "L21368830",
    "name": "Clinton River Spillway",
    "lat": 42.5779771,
    "lng": -82.8716281,
    "numSpecies": 108,
    "latestObs": "2026-03-14 14:00",
    "knowledge": null
  },
  {
    "locId": "L10976037",
    "name": "Clinton River Spillway Fishing Spot and DNR Boat Launch",
    "lat": 42.561971,
    "lng": -82.8464091,
    "numSpecies": 93,
    "latestObs": "2026-03-23 19:27",
    "knowledge": null
  },
  {
    "locId": "L995547",
    "name": "Clinton River--Canal Park and Trails to Dam and Budd Park",
    "lat": 42.5891094,
    "lng": -82.9199123,
    "numSpecies": 148,
    "latestObs": "2026-03-18 12:18",
    "knowledge": null
  },
  {
    "locId": "L8511300",
    "name": "Crystal Lake",
    "lat": 42.6751505,
    "lng": -83.0911651,
    "numSpecies": 30,
    "latestObs": "2026-01-07 15:26",
    "knowledge": null
  },
  {
    "locId": "L985755",
    "name": "Dodge Park",
    "lat": 42.5930335,
    "lng": -83.0121278,
    "numSpecies": 154,
    "latestObs": "2026-03-15 12:20",
    "knowledge": null
  },
  {
    "locId": "L37945505",
    "name": "Drewry Park",
    "lat": 42.5481239,
    "lng": -82.8951794,
    "numSpecies": 16,
    "latestObs": "2025-11-06 14:40",
    "knowledge": null
  },
  {
    "locId": "L22174278",
    "name": "Eastpointe Spindler Park",
    "lat": 42.4713982,
    "lng": -82.9181118,
    "numSpecies": 20,
    "latestObs": "2025-09-27 14:25",
    "knowledge": null
  },
  {
    "locId": "L22483070",
    "name": "Eckstein Park",
    "lat": 42.5274798,
    "lng": -83.0423471,
    "numSpecies": 33,
    "latestObs": "2024-04-15 14:13",
    "knowledge": null
  },
  {
    "locId": "L5752046",
    "name": "Farmstead Park",
    "lat": 42.5989817,
    "lng": -83.0109487,
    "numSpecies": 145,
    "latestObs": "2026-02-28 09:59",
    "knowledge": null
  },
  {
    "locId": "L10022070",
    "name": "Foam Factory pond",
    "lat": 42.670892,
    "lng": -82.949865,
    "numSpecies": 71,
    "latestObs": "2026-03-24 15:02",
    "knowledge": null
  },
  {
    "locId": "L4962709",
    "name": "Ford Field Park",
    "lat": 42.6645827,
    "lng": -83.0380007,
    "numSpecies": 73,
    "latestObs": "2024-02-19 14:46",
    "knowledge": null
  },
  {
    "locId": "L384255",
    "name": "Ford House",
    "lat": 42.4554221,
    "lng": -82.8723113,
    "numSpecies": 210,
    "latestObs": "2026-03-24 08:40",
    "knowledge": null
  },
  {
    "locId": "L26335916",
    "name": "Freedom Hill Park",
    "lat": 42.561086,
    "lng": -82.9799975,
    "numSpecies": 107,
    "latestObs": "2026-03-20 13:22",
    "knowledge": null
  },
  {
    "locId": "L2453940",
    "name": "General Motors Technical Center (restricted access)",
    "lat": 42.5111076,
    "lng": -83.0319643,
    "numSpecies": 127,
    "latestObs": "2026-03-24 14:03",
    "knowledge": null
  },
  {
    "locId": "L17599375",
    "name": "George George Memorial Park",
    "lat": 42.5939749,
    "lng": -82.9063511,
    "numSpecies": 57,
    "latestObs": "2026-03-08 17:47",
    "knowledge": null
  },
  {
    "locId": "L11347466",
    "name": "Gerald N. Donovan Park/Jaycee Park",
    "lat": 42.603934,
    "lng": -83.015673,
    "numSpecies": 77,
    "latestObs": "2026-03-23 13:40",
    "knowledge": null
  },
  {
    "locId": "L4344124",
    "name": "Gilcher-Crissman Park",
    "lat": 42.758289,
    "lng": -83.049601,
    "numSpecies": 28,
    "latestObs": "2026-02-09 12:50",
    "knowledge": null
  },
  {
    "locId": "L678939",
    "name": "Harley Ensign Memorial Boating Access Site",
    "lat": 42.592648,
    "lng": -82.7715111,
    "numSpecies": 210,
    "latestObs": "2026-03-21 13:23",
    "knowledge": null
  },
  {
    "locId": "L23861591",
    "name": "Harrington Trail",
    "lat": 42.5402122,
    "lng": -82.9609522,
    "numSpecies": 55,
    "latestObs": "2025-05-29 07:30",
    "knowledge": null
  },
  {
    "locId": "L10976071",
    "name": "Harrison Twp. Waterfront Park",
    "lat": 42.548269,
    "lng": -82.8518197,
    "numSpecies": 50,
    "latestObs": "2025-11-16 11:45",
    "knowledge": null
  },
  {
    "locId": "L22491396",
    "name": "Hebrew Memorial Park",
    "lat": 42.5418622,
    "lng": -82.9033491,
    "numSpecies": 50,
    "latestObs": "2026-03-17 16:36",
    "knowledge": null
  },
  {
    "locId": "L928266",
    "name": "Holland Ponds",
    "lat": 42.6619574,
    "lng": -83.0789995,
    "numSpecies": 178,
    "latestObs": "2026-03-22 14:15",
    "knowledge": null
  },
  {
    "locId": "L22904153",
    "name": "Imus Park",
    "lat": 42.5709605,
    "lng": -83.0130858,
    "numSpecies": 41,
    "latestObs": "2026-03-04 16:54",
    "knowledge": null
  },
  {
    "locId": "L1581925",
    "name": "Inwood Rd. fields",
    "lat": 42.7669151,
    "lng": -83.0644881,
    "numSpecies": 106,
    "latestObs": "2026-02-24 11:00",
    "knowledge": null
  },
  {
    "locId": "L879462",
    "name": "J.C. Nelson Park",
    "lat": 42.5527879,
    "lng": -83.0798364,
    "numSpecies": 74,
    "latestObs": "2026-03-22 13:58",
    "knowledge": null
  },
  {
    "locId": "L24683213",
    "name": "Jimmy John's Field and Riverwalk",
    "lat": 42.627356,
    "lng": -83.038556,
    "numSpecies": 47,
    "latestObs": "2026-02-15 14:15",
    "knowledge": null
  },
  {
    "locId": "L4556183",
    "name": "Joseph Delia Park",
    "lat": 42.5965339,
    "lng": -83.0765855,
    "numSpecies": 162,
    "latestObs": "2026-03-18 17:14",
    "knowledge": null
  },
  {
    "locId": "L28166937",
    "name": "Kyte Monroe Park",
    "lat": 42.5356657,
    "lng": -82.8870753,
    "numSpecies": 3,
    "latestObs": "2023-12-03 15:30",
    "knowledge": null
  },
  {
    "locId": "L19692422",
    "name": "Lac Sainte Clair Park",
    "lat": 42.4955486,
    "lng": -82.886095,
    "numSpecies": 48,
    "latestObs": "2025-10-15 17:10",
    "knowledge": null
  },
  {
    "locId": "L13120623",
    "name": "Lake Front Park",
    "lat": 42.4586739,
    "lng": -82.8807306,
    "numSpecies": 84,
    "latestObs": "2026-02-27 16:18",
    "knowledge": null
  },
  {
    "locId": "L388494",
    "name": "Lake St. Clair Metropark (Metro Beach Metropark)",
    "lat": 42.5796301,
    "lng": -82.8032684,
    "numSpecies": 293,
    "latestObs": "2026-03-24 13:28",
    "knowledge": null
  },
  {
    "locId": "L991150",
    "name": "Lakeside Island Park",
    "lat": 42.6191494,
    "lng": -82.980423,
    "numSpecies": 94,
    "latestObs": "2026-03-24 11:33",
    "knowledge": null
  },
  {
    "locId": "L23860501",
    "name": "Licht Park",
    "lat": 42.5152064,
    "lng": -83.0134349,
    "numSpecies": 37,
    "latestObs": "2026-03-19 18:12",
    "knowledge": null
  },
  {
    "locId": "L28175372",
    "name": "Lillian Lucas Walking Trails",
    "lat": 42.7007477,
    "lng": -82.7373353,
    "numSpecies": 26,
    "latestObs": "2025-03-21 16:27",
    "knowledge": null
  },
  {
    "locId": "L22903066",
    "name": "Lincoln Memorial Park Cemetery",
    "lat": 42.5417945,
    "lng": -82.8965739,
    "numSpecies": 81,
    "latestObs": "2026-03-20 16:50",
    "knowledge": null
  },
  {
    "locId": "L7329834",
    "name": "Lombardo Park",
    "lat": 42.656497,
    "lng": -83.012487,
    "numSpecies": 38,
    "latestObs": "2025-12-20 13:00",
    "knowledge": null
  },
  {
    "locId": "L15532359",
    "name": "Macomb Center Cemetery",
    "lat": 42.6873372,
    "lng": -82.9061976,
    "numSpecies": 14,
    "latestObs": "2025-05-11 07:15",
    "knowledge": null
  },
  {
    "locId": "L1363507",
    "name": "Macomb Community College",
    "lat": 42.6231648,
    "lng": -82.9591107,
    "numSpecies": 99,
    "latestObs": "2026-03-08 15:17",
    "knowledge": null
  },
  {
    "locId": "L37866060",
    "name": "Macomb Community College--South Campus",
    "lat": 42.5061975,
    "lng": -82.9717215,
    "numSpecies": 22,
    "latestObs": "2026-03-18 18:43",
    "knowledge": null
  },
  {
    "locId": "L2113042",
    "name": "Macomb Corners Park",
    "lat": 42.7041209,
    "lng": -82.9325938,
    "numSpecies": 58,
    "latestObs": "2026-02-16 09:14",
    "knowledge": null
  },
  {
    "locId": "L11739337",
    "name": "Macomb Twp. Nature Park",
    "lat": 42.7148592,
    "lng": -82.8934492,
    "numSpecies": 112,
    "latestObs": "2026-02-08 14:10",
    "knowledge": null
  },
  {
    "locId": "L4343481",
    "name": "Mae Stecker Park and Heritage Garden",
    "lat": 42.6828041,
    "lng": -83.0288052,
    "numSpecies": 64,
    "latestObs": "2026-03-12 17:34",
    "knowledge": null
  },
  {
    "locId": "L2104283",
    "name": "Marshall Field",
    "lat": 42.4665134,
    "lng": -82.9803264,
    "numSpecies": 98,
    "latestObs": "2024-05-28 13:48",
    "knowledge": null
  },
  {
    "locId": "L24035515",
    "name": "Maynard \"Red\" Aurand Memorial Park",
    "lat": 42.6894797,
    "lng": -82.7586734,
    "numSpecies": 39,
    "latestObs": "2025-02-21 14:40",
    "knowledge": null
  },
  {
    "locId": "L989005",
    "name": "McArthur Park Arboretum",
    "lat": 42.5979002,
    "lng": -82.8716379,
    "numSpecies": 48,
    "latestObs": "2026-01-27 12:00",
    "knowledge": null
  },
  {
    "locId": "L6172236",
    "name": "McBride Drain and Habitat Restoration",
    "lat": 42.698702,
    "lng": -82.92221,
    "numSpecies": 114,
    "latestObs": "2026-03-21 17:39",
    "knowledge": null
  },
  {
    "locId": "L996509",
    "name": "Meadowview Park",
    "lat": 42.5700466,
    "lng": -82.9810131,
    "numSpecies": 85,
    "latestObs": "2025-11-27 16:05",
    "knowledge": null
  },
  {
    "locId": "L27150145",
    "name": "Moravian Park",
    "lat": 42.5459686,
    "lng": -82.9774737,
    "numSpecies": 57,
    "latestObs": "2026-01-12 11:00",
    "knowledge": null
  },
  {
    "locId": "L1961910",
    "name": "Mt. Clemens Municipal Center",
    "lat": 42.5971499,
    "lng": -82.8749156,
    "numSpecies": 45,
    "latestObs": "2026-03-22 13:41",
    "knowledge": null
  },
  {
    "locId": "L2862411",
    "name": "Nicholson Nature Center",
    "lat": 42.6214249,
    "lng": -82.8948108,
    "numSpecies": 148,
    "latestObs": "2026-03-20 13:28",
    "knowledge": null
  },
  {
    "locId": "L1142116",
    "name": "Partridge Creek Mall and Gloede Ditch Conservation Area",
    "lat": 42.6254019,
    "lng": -82.9461336,
    "numSpecies": 116,
    "latestObs": "2026-03-21 15:01",
    "knowledge": null
  },
  {
    "locId": "L38234158",
    "name": "Paul and Annette Lucido River Park",
    "lat": 42.682191,
    "lng": -82.878478,
    "numSpecies": 41,
    "latestObs": "2025-07-01 14:25",
    "knowledge": null
  },
  {
    "locId": "L11364031",
    "name": "Pine Tree Acres Landfill (restricted access)",
    "lat": 42.7499936,
    "lng": -82.7494326,
    "numSpecies": 99,
    "latestObs": "2026-03-24 11:52",
    "knowledge": null
  },
  {
    "locId": "L41129005",
    "name": "Plum Brook Wetlands",
    "lat": 42.6192125,
    "lng": -83.0611242,
    "numSpecies": 21,
    "latestObs": "2025-06-01 15:15",
    "knowledge": null
  },
  {
    "locId": "L39144627",
    "name": "Ray Community Airport",
    "lat": 42.738811,
    "lng": -82.885718,
    "numSpecies": 28,
    "latestObs": "2026-01-04 14:12",
    "knowledge": null
  },
  {
    "locId": "L9100016",
    "name": "Red Run/Baumgartner Park",
    "lat": 42.5491983,
    "lng": -82.9952541,
    "numSpecies": 137,
    "latestObs": "2026-03-20 15:02",
    "knowledge": null
  },
  {
    "locId": "L31439290",
    "name": "Resurrection Cemetery",
    "lat": 42.5897824,
    "lng": -82.9367517,
    "numSpecies": 15,
    "latestObs": "2025-08-02 14:03",
    "knowledge": null
  },
  {
    "locId": "L888640",
    "name": "River Bends Park",
    "lat": 42.6514633,
    "lng": -83.0551708,
    "numSpecies": 140,
    "latestObs": "2026-03-08 14:43",
    "knowledge": null
  },
  {
    "locId": "L1865755",
    "name": "Rochester-Utica RA",
    "lat": 42.6632817,
    "lng": -83.0895013,
    "numSpecies": 51,
    "latestObs": "2024-10-06 11:51",
    "knowledge": null
  },
  {
    "locId": "L2773860",
    "name": "Romeo Area R/C Aircraft Club",
    "lat": 42.7714659,
    "lng": -82.9458327,
    "numSpecies": 78,
    "latestObs": "2026-01-01 11:02",
    "knowledge": null
  },
  {
    "locId": "L2465673",
    "name": "Ruedisale Point Park",
    "lat": 42.684068,
    "lng": -82.7090639,
    "numSpecies": 133,
    "latestObs": "2026-03-19 12:37",
    "knowledge": null
  },
  {
    "locId": "L8261297",
    "name": "Salt River Nature Preserve",
    "lat": 42.6699188,
    "lng": -82.7751608,
    "numSpecies": 89,
    "latestObs": "2026-03-21 09:35",
    "knowledge": null
  },
  {
    "locId": "L6643514",
    "name": "Schoenherr and 28 Mile Rd. fields",
    "lat": 42.7413507,
    "lng": -82.9928141,
    "numSpecies": 115,
    "latestObs": "2026-03-21 16:09",
    "knowledge": null
  },
  {
    "locId": "L5535905",
    "name": "Selfridge Public Boat Launch",
    "lat": 42.6305798,
    "lng": -82.8199325,
    "numSpecies": 104,
    "latestObs": "2026-03-23 12:21",
    "knowledge": null
  },
  {
    "locId": "L13511515",
    "name": "Shadyside Park",
    "lat": 42.5831863,
    "lng": -82.8787646,
    "numSpecies": 61,
    "latestObs": "2025-10-04 15:47",
    "knowledge": null
  },
  {
    "locId": "L23862485",
    "name": "St. John's Memorial Gardens",
    "lat": 42.5393536,
    "lng": -82.9654719,
    "numSpecies": 49,
    "latestObs": "2026-03-20 16:20",
    "knowledge": null
  },
  {
    "locId": "L23843628",
    "name": "Steinhauser Park",
    "lat": 42.4841467,
    "lng": -83.0748243,
    "numSpecies": 13,
    "latestObs": "2026-03-18 08:21",
    "knowledge": null
  },
  {
    "locId": "L5263638",
    "name": "Sterling Heights Nature Center",
    "lat": 42.6077005,
    "lng": -83.0274796,
    "numSpecies": 151,
    "latestObs": "2026-03-21 16:15",
    "knowledge": null
  },
  {
    "locId": "L20896806",
    "name": "Sterling Heights Nature Trail",
    "lat": 42.6172269,
    "lng": -83.0862365,
    "numSpecies": 59,
    "latestObs": "2026-02-09 14:36",
    "knowledge": null
  },
  {
    "locId": "L23214166",
    "name": "Sterling Heights Rotary Park",
    "lat": 42.5707657,
    "lng": -82.9723004,
    "numSpecies": 57,
    "latestObs": "2025-05-20 07:50",
    "knowledge": null
  },
  {
    "locId": "L1488051",
    "name": "Stony Creek Metropark--Inwood Trails",
    "lat": 42.7678427,
    "lng": -83.0758972,
    "numSpecies": 193,
    "latestObs": "2026-03-20 15:11",
    "knowledge": null
  },
  {
    "locId": "L389646",
    "name": "Stony Creek Metropark--north (Macomb Co.)",
    "lat": 42.7547183,
    "lng": -83.0723682,
    "numSpecies": 241,
    "latestObs": "2026-03-22 09:50",
    "knowledge": null
  },
  {
    "locId": "L1582233",
    "name": "Stony Creek Metropark--south (Macomb Co.)",
    "lat": 42.7224105,
    "lng": -83.0819054,
    "numSpecies": 238,
    "latestObs": "2026-03-24 09:33",
    "knowledge": null
  },
  {
    "locId": "L988974",
    "name": "Strawberry Marsh",
    "lat": 42.5833114,
    "lng": -82.9947567,
    "numSpecies": 59,
    "latestObs": "2026-02-06 14:35",
    "knowledge": null
  },
  {
    "locId": "L1875060",
    "name": "Teller Rd. at 28 Mile Rd.",
    "lat": 42.7463361,
    "lng": -82.9125385,
    "numSpecies": 191,
    "latestObs": "2026-03-24 13:27",
    "knowledge": null
  },
  {
    "locId": "L4616308",
    "name": "Tomlinson Arboretum",
    "lat": 42.5986742,
    "lng": -82.9408604,
    "numSpecies": 126,
    "latestObs": "2026-03-23 11:47",
    "knowledge": null
  },
  {
    "locId": "L24776694",
    "name": "Total Sports fields",
    "lat": 42.77702,
    "lng": -83.004192,
    "numSpecies": 72,
    "latestObs": "2025-12-20 12:44",
    "knowledge": null
  },
  {
    "locId": "L2795407",
    "name": "Towne Center Blvd. ponds/fields",
    "lat": 42.6385008,
    "lng": -82.8414202,
    "numSpecies": 132,
    "latestObs": "2026-03-16 15:32",
    "knowledge": null
  },
  {
    "locId": "L21024085",
    "name": "Tucker Park",
    "lat": 42.5644242,
    "lng": -82.8489283,
    "numSpecies": 74,
    "latestObs": "2026-03-10 13:55",
    "knowledge": null
  },
  {
    "locId": "L20905292",
    "name": "Veterans Memorial Park",
    "lat": 42.5261515,
    "lng": -82.8711947,
    "numSpecies": 80,
    "latestObs": "2026-03-10 15:55",
    "knowledge": null
  },
  {
    "locId": "L24681651",
    "name": "Wahby Park and Blossom Heath Pier",
    "lat": 42.4743465,
    "lng": -82.8859816,
    "numSpecies": 58,
    "latestObs": "2026-02-27 17:32",
    "knowledge": null
  },
  {
    "locId": "L1526657",
    "name": "Waldenburg Park",
    "lat": 42.6439413,
    "lng": -82.9311867,
    "numSpecies": 115,
    "latestObs": "2026-03-19 15:03",
    "knowledge": null
  },
  {
    "locId": "L1871511",
    "name": "Walter and Mary Burke Park",
    "lat": 42.678625,
    "lng": -82.7336124,
    "numSpecies": 99,
    "latestObs": "2026-03-23 11:31",
    "knowledge": null
  },
  {
    "locId": "L23007211",
    "name": "Warren Community Center",
    "lat": 42.5296133,
    "lng": -83.0534028,
    "numSpecies": 20,
    "latestObs": "2026-03-10 07:17",
    "knowledge": null
  },
  {
    "locId": "L23211794",
    "name": "Washington Community Park",
    "lat": 42.720159,
    "lng": -83.0341667,
    "numSpecies": 2,
    "latestObs": "2023-03-25 11:59",
    "knowledge": null
  },
  {
    "locId": "L17138157",
    "name": "Webber Paddle Park",
    "lat": 42.658809,
    "lng": -82.775846,
    "numSpecies": 23,
    "latestObs": "2025-12-14 09:46",
    "knowledge": null
  },
  {
    "locId": "L324161",
    "name": "Wetzel SP",
    "lat": 42.7397538,
    "lng": -82.8481499,
    "numSpecies": 224,
    "latestObs": "2026-03-24 12:31",
    "knowledge": null
  },
  {
    "locId": "L5508625",
    "name": "Whispering Woods",
    "lat": 42.639462,
    "lng": -83.022151,
    "numSpecies": 72,
    "latestObs": "2025-03-23 10:45",
    "knowledge": null
  },
  {
    "locId": "L1298313",
    "name": "Wilcox Warnes Nature Sanctuary",
    "lat": 42.7119337,
    "lng": -82.9967093,
    "numSpecies": 92,
    "latestObs": "2026-02-21 13:45",
    "knowledge": null
  },
  {
    "locId": "L1550747",
    "name": "Wolcott Mill Metropark",
    "lat": 42.7587876,
    "lng": -82.9136123,
    "numSpecies": 163,
    "latestObs": "2026-03-24 13:48",
    "knowledge": null
  },
  {
    "locId": "L17660988",
    "name": "Wolcott Mill Metropark--Camp Rotary",
    "lat": 42.761608,
    "lng": -82.923836,
    "numSpecies": 40,
    "latestObs": "2026-01-17 08:10",
    "knowledge": null
  },
  {
    "locId": "L6549206",
    "name": "Wolcott Mill Metropark--North Branch Trails",
    "lat": 42.730166,
    "lng": -82.902239,
    "numSpecies": 145,
    "latestObs": "2026-03-23 11:32",
    "knowledge": null
  },
  {
    "locId": "L1809710",
    "name": "Wolcott Mill Metropark--north trails",
    "lat": 42.7653082,
    "lng": -82.9288106,
    "numSpecies": 156,
    "latestObs": "2026-03-18 10:16",
    "knowledge": null
  },
  {
    "locId": "L9425491",
    "name": "stakeout Vermilion Flycatcher, Ray Twp (2023)",
    "lat": 42.77465,
    "lng": -82.951636,
    "numSpecies": 113,
    "latestObs": "2026-03-24 14:38",
    "knowledge": null
  }
]