[
  {
    "locId": "L2714220",
    "countryCode": "US",
    "subnational1Code": "US-MI",
    "subnational2Code": "US-MI-075",
    "lat": 42.1883696,
    "lng": -84.3487787,
    "locName": "Ackerson Lake",
    "latestObsDt": "2026-04-10 12:09",
    "numSpeciesAllTime": 71
  },
  {
    "locId": "L3531344",
    "countryCode": "US",
    "subnational1Code": "US-MI",
    "subnational2Code": "US-MI-075",
    "lat": 42.2625603,
    "lng": -84.409337,
    "locName": "Armory Arts Walk/Lions Park",
    "latestObsDt": "2026-02-11 14:30",
    "numSpeciesAllTime": 98
  },
  {
    "locId": "L2795249",
    "countryCode": "US",
    "subnational1Code": "US-MI",
    "subnational2Code": "US-MI-075",
    "lat": 42.3981545,
    "lng": -84.3210125,
    "locName": "Batteese Lake",
    "latestObsDt": "2026-04-16 08:26",
    "numSpeciesAllTime": 216
  },
  {
    "locId": "L2343181",
    "countryCode": "US",
    "subnational1Code": "US-MI",
    "subnational2Code": "US-MI-075",
    "lat": 42.2786424,
    "lng": -84.1475916,
    "locName": "Bohne Rd. pond",
    "latestObsDt": "2022-12-17 15:33",
    "numSpeciesAllTime": 43
  },
  {
    "locId": "L2702819",
    "countryCode": "US",
    "subnational1Code": "US-MI",
    "subnational2Code": "US-MI-075",
    "lat": 42.1881549,
    "lng": -84.4177008,
    "locName": "Brown Lake",
    "latestObsDt": "2025-08-10 20:10",
    "numSpeciesAllTime": 56
  },
  {
    "locId": "L4962983",
    "countryCode": "US",
    "subnational1Code": "US-MI",
    "subnational2Code": "US-MI-075",
    "lat": 42.4035821,
    "lng": -84.6255827,
    "locName": "Brown Rd. & Sibley Rd. wetlands",
    "latestObsDt": "2026-01-03 10:02",
    "numSpeciesAllTime": 96
  },
  {
    "locId": "L4477149",
    "countryCode": "US",
    "subnational1Code": "US-MI",
    "subnational2Code": "US-MI-075",
    "lat": 42.22829,
    "lng": -84.432574,
    "locName": "Cascades Falls area",
    "latestObsDt": "2026-04-15 19:21",
    "numSpeciesAllTime": 88
  },
  {
    "locId": "L11254724",
    "countryCode": "US",
    "subnational1Code": "US-MI",
    "subnational2Code": "US-MI-075",
    "lat": 42.2170343,
    "lng": -84.3037381,
    "locName": "Center Lake public access",
    "latestObsDt": "2026-01-18 15:39",
    "numSpeciesAllTime": 56
  },
  {
    "locId": "L4020862",
    "countryCode": "US",
    "subnational1Code": "US-MI",
    "subnational2Code": "US-MI-075",
    "lat": 42.228649,
    "lng": -84.3264207,
    "locName": "Center Lake--5th St. boat launch",
    "latestObsDt": "2026-02-28 17:17",
    "numSpeciesAllTime": 80
  },
  {
    "locId": "L1929552",
    "countryCode": "US",
    "subnational1Code": "US-MI",
    "subnational2Code": "US-MI-075",
    "lat": 42.1198879,
    "lng": -84.3239307,
    "locName": "Clark Lake",
    "latestObsDt": "2026-01-24 12:30",
    "numSpeciesAllTime": 96
  },
  {
    "locId": "L1337786",
    "countryCode": "US",
    "subnational1Code": "US-MI",
    "subnational2Code": "US-MI-075",
    "lat": 42.3322033,
    "lng": -84.1522345,
    "locName": "Clear Lake County Park",
    "latestObsDt": "2026-04-03 13:53",
    "numSpeciesAllTime": 70
  },
  {
    "locId": "L1519033",
    "countryCode": "US",
    "subnational1Code": "US-MI",
    "subnational2Code": "US-MI-075",
    "lat": 42.0752105,
    "lng": -84.2695736,
    "locName": "Columbia Sanctuary",
    "latestObsDt": "2026-04-01 09:03",
    "numSpeciesAllTime": 86
  },
  {
    "locId": "L3497209",
    "countryCode": "US",
    "subnational1Code": "US-MI",
    "subnational2Code": "US-MI-075",
    "lat": 42.1804441,
    "lng": -84.633007,
    "locName": "Concord Millpond",
    "latestObsDt": "2026-03-28 15:27",
    "numSpeciesAllTime": 150
  },
  {
    "locId": "L28342002",
    "countryCode": "US",
    "subnational1Code": "US-MI",
    "subnational2Code": "US-MI-075",
    "lat": 42.112728,
    "lng": -84.442791,
    "locName": "Crispell Lake",
    "latestObsDt": "2026-04-05 14:27",
    "numSpeciesAllTime": 96
  },
  {
    "locId": "L3546007",
    "countryCode": "US",
    "subnational1Code": "US-MI",
    "subnational2Code": "US-MI-075",
    "lat": 42.3398231,
    "lng": -84.2580879,
    "locName": "Cutler Rd. and Dunn Rd. wetland",
    "latestObsDt": "2026-04-18 14:34",
    "numSpeciesAllTime": 196
  },
  {
    "locId": "L768969",
    "countryCode": "US",
    "subnational1Code": "US-MI",
    "subnational2Code": "US-MI-075",
    "lat": 42.1632523,
    "lng": -84.4259083,
    "locName": "Dahlem Center",
    "latestObsDt": "2026-04-13 15:19",
    "numSpeciesAllTime": 174
  },
  {
    "locId": "L4049291",
    "countryCode": "US",
    "subnational1Code": "US-MI",
    "subnational2Code": "US-MI-075",
    "lat": 42.3129573,
    "lng": -84.3585634,
    "locName": "Dalton Rd. area",
    "latestObsDt": "2026-04-18 15:03",
    "numSpeciesAllTime": 215
  },
  {
    "locId": "L3525860",
    "countryCode": "US",
    "subnational1Code": "US-MI",
    "subnational2Code": "US-MI-075",
    "lat": 42.1960122,
    "lng": -84.2818522,
    "locName": "Dollar Lake",
    "latestObsDt": "2023-03-12 10:58",
    "numSpeciesAllTime": 30
  },
  {
    "locId": "L2573732",
    "countryCode": "US",
    "subnational1Code": "US-MI",
    "subnational2Code": "US-MI-075",
    "lat": 42.2131669,
    "lng": -84.418366,
    "locName": "Ella Sharp Park",
    "latestObsDt": "2026-03-27 12:00",
    "numSpeciesAllTime": 110
  },
  {
    "locId": "L3784774",
    "countryCode": "US",
    "subnational1Code": "US-MI",
    "subnational2Code": "US-MI-075",
    "lat": 42.1813876,
    "lng": -84.6033016,
    "locName": "Falling Waters Trail (west end)",
    "latestObsDt": "2026-03-28 15:30",
    "numSpeciesAllTime": 108
  },
  {
    "locId": "L2207542",
    "countryCode": "US",
    "subnational1Code": "US-MI",
    "subnational2Code": "US-MI-075",
    "lat": 42.1904046,
    "lng": -84.5426488,
    "locName": "Falling Waters Trail--Lime Lake vicinity",
    "latestObsDt": "2026-04-11 09:10",
    "numSpeciesAllTime": 167
  },
  {
    "locId": "L1864259",
    "countryCode": "US",
    "subnational1Code": "US-MI",
    "subnational2Code": "US-MI-075",
    "lat": 42.124916,
    "lng": -84.173187,
    "locName": "Fay Lake",
    "latestObsDt": "2024-10-12 11:47",
    "numSpeciesAllTime": 55
  },
  {
    "locId": "L3546231",
    "countryCode": "US",
    "subnational1Code": "US-MI",
    "subnational2Code": "US-MI-075",
    "lat": 42.263824,
    "lng": -84.3130088,
    "locName": "Gilletts Lake",
    "latestObsDt": "2026-04-05 17:16",
    "numSpeciesAllTime": 123
  },
  {
    "locId": "L11997508",
    "countryCode": "US",
    "subnational1Code": "US-MI",
    "subnational2Code": "US-MI-075",
    "lat": 42.0804838,
    "lng": -84.4700814,
    "locName": "Grand River Fen Preserve",
    "latestObsDt": "2026-03-22 12:43",
    "numSpeciesAllTime": 119
  },
  {
    "locId": "L56215323",
    "countryCode": "US",
    "subnational1Code": "US-MI",
    "subnational2Code": "US-MI-075",
    "lat": 42.3423091,
    "lng": -84.4022812,
    "locName": "Grand River--Oak Grove Boat Launch",
    "latestObsDt": "2025-05-10 19:29",
    "numSpeciesAllTime": 5
  },
  {
    "locId": "L56215029",
    "countryCode": "US",
    "subnational1Code": "US-MI",
    "subnational2Code": "US-MI-075",
    "lat": 42.39149,
    "lng": -84.5419706,
    "locName": "Grand River--Tompkins Rd. Boat Launch",
    "latestObsDt": "2026-02-26 11:03",
    "numSpeciesAllTime": 54
  },
  {
    "locId": "L56215156",
    "countryCode": "US",
    "subnational1Code": "US-MI",
    "subnational2Code": "US-MI-075",
    "lat": 42.3960525,
    "lng": -84.4892399,
    "locName": "Grand River--Trestle Bridge Boat Launch",
    "latestObsDt": "2019-05-06 16:51",
    "numSpeciesAllTime": 26
  },
  {
    "locId": "L2390432",
    "countryCode": "US",
    "subnational1Code": "US-MI",
    "subnational2Code": "US-MI-075",
    "lat": 42.2611762,
    "lng": -84.2156982,
    "locName": "Grass Lake",
    "latestObsDt": "2026-04-04 11:09",
    "numSpeciesAllTime": 137
  },
  {
    "locId": "L269759",
    "countryCode": "US",
    "subnational1Code": "US-MI",
    "subnational2Code": "US-MI-075",
    "lat": 42.3236329,
    "lng": -84.2880564,
    "locName": "Haehnle Sanctuary",
    "latestObsDt": "2026-04-18 13:39",
    "numSpeciesAllTime": 218
  },
  {
    "locId": "L311891",
    "countryCode": "US",
    "subnational1Code": "US-MI",
    "subnational2Code": "US-MI-075",
    "lat": 42.3274978,
    "lng": -84.3424863,
    "locName": "Hawkins Rd.",
    "latestObsDt": "2024-12-14 13:32",
    "numSpeciesAllTime": 77
  },
  {
    "locId": "L7489360",
    "countryCode": "US",
    "subnational1Code": "US-MI",
    "subnational2Code": "US-MI-075",
    "lat": 42.149994,
    "lng": -84.5224035,
    "locName": "Horton Mill Pond",
    "latestObsDt": "2024-12-21 12:32",
    "numSpeciesAllTime": 16
  },
  {
    "locId": "L3820146",
    "countryCode": "US",
    "subnational1Code": "US-MI",
    "subnational2Code": "US-MI-075",
    "lat": 42.1640463,
    "lng": -84.404974,
    "locName": "Jackson College Campus",
    "latestObsDt": "2025-07-10 08:34",
    "numSpeciesAllTime": 60
  },
  {
    "locId": "L16971045",
    "countryCode": "US",
    "subnational1Code": "US-MI",
    "subnational2Code": "US-MI-075",
    "lat": 42.3483763,
    "lng": -84.4333901,
    "locName": "Jones Rd. pond",
    "latestObsDt": "2025-06-05 11:56",
    "numSpeciesAllTime": 24
  },
  {
    "locId": "L1763121",
    "countryCode": "US",
    "subnational1Code": "US-MI",
    "subnational2Code": "US-MI-075",
    "lat": 42.2358023,
    "lng": -84.4896005,
    "locName": "Kate Palmer Wildlife Sanctuary",
    "latestObsDt": "2026-04-18 13:32",
    "numSpeciesAllTime": 133
  },
  {
    "locId": "L4044340",
    "countryCode": "US",
    "subnational1Code": "US-MI",
    "subnational2Code": "US-MI-075",
    "lat": 42.0875382,
    "lng": -84.2906928,
    "locName": "Lake Columbia (east)",
    "latestObsDt": "2026-04-01 09:28",
    "numSpeciesAllTime": 65
  },
  {
    "locId": "L4044337",
    "countryCode": "US",
    "subnational1Code": "US-MI",
    "subnational2Code": "US-MI-075",
    "lat": 42.0901019,
    "lng": -84.3100691,
    "locName": "Lake Columbia (west)",
    "latestObsDt": "2026-04-17 15:46",
    "numSpeciesAllTime": 89
  },
  {
    "locId": "L1926841",
    "countryCode": "US",
    "subnational1Code": "US-MI",
    "subnational2Code": "US-MI-075",
    "lat": 42.1863218,
    "lng": -84.2185242,
    "locName": "Lefglen Nature Sanctuary",
    "latestObsDt": "2026-04-13 11:44",
    "numSpeciesAllTime": 143
  },
  {
    "locId": "L2695895",
    "countryCode": "US",
    "subnational1Code": "US-MI",
    "subnational2Code": "US-MI-075",
    "lat": 42.2440229,
    "lng": -84.2642677,
    "locName": "Leoni Millpond",
    "latestObsDt": "2026-03-18 15:15",
    "numSpeciesAllTime": 89
  },
  {
    "locId": "L2982725",
    "countryCode": "US",
    "subnational1Code": "US-MI",
    "subnational2Code": "US-MI-075",
    "lat": 42.1906272,
    "lng": -84.2205262,
    "locName": "Little Wolf Lake County Park",
    "latestObsDt": "2026-04-11 19:26",
    "numSpeciesAllTime": 112
  },
  {
    "locId": "L1034996",
    "countryCode": "US",
    "subnational1Code": "US-MI",
    "subnational2Code": "US-MI-075",
    "lat": 42.2182596,
    "lng": -84.4285984,
    "locName": "MLK Equality Trail--SW Jackson",
    "latestObsDt": "2026-02-15 14:10",
    "numSpeciesAllTime": 136
  },
  {
    "locId": "L1395463",
    "countryCode": "US",
    "subnational1Code": "US-MI",
    "subnational2Code": "US-MI-075",
    "lat": 42.1277181,
    "lng": -84.4021648,
    "locName": "MacCready Reserve",
    "latestObsDt": "2026-04-13 17:01",
    "numSpeciesAllTime": 167
  },
  {
    "locId": "L37677529",
    "countryCode": "US",
    "subnational1Code": "US-MI",
    "subnational2Code": "US-MI-075",
    "lat": 42.133831,
    "lng": -84.46646,
    "locName": "Maple Dale Rd.",
    "latestObsDt": "2025-11-30 10:12",
    "numSpeciesAllTime": 69
  },
  {
    "locId": "L4280867",
    "countryCode": "US",
    "subnational1Code": "US-MI",
    "subnational2Code": "US-MI-075",
    "lat": 42.423068,
    "lng": -84.356563,
    "locName": "Meridian Baseline Historic State Park",
    "latestObsDt": "2026-04-15 13:41",
    "numSpeciesAllTime": 104
  },
  {
    "locId": "L19613669",
    "countryCode": "US",
    "subnational1Code": "US-MI",
    "subnational2Code": "US-MI-075",
    "lat": 42.307884,
    "lng": -84.3593496,
    "locName": "Mike Levine Lakelands Trail -- west of Dalton Rd.",
    "latestObsDt": "2026-04-18 16:32",
    "numSpeciesAllTime": 174
  },
  {
    "locId": "L11615347",
    "countryCode": "US",
    "subnational1Code": "US-MI",
    "subnational2Code": "US-MI-075",
    "lat": 42.3214838,
    "lng": -84.3393605,
    "locName": "Mike Levine Lakelands Trail SP--Hawkins Rd.",
    "latestObsDt": "2026-04-18 17:20",
    "numSpeciesAllTime": 184
  },
  {
    "locId": "L6054914",
    "countryCode": "US",
    "subnational1Code": "US-MI",
    "subnational2Code": "US-MI-075",
    "lat": 42.337838,
    "lng": -84.5480803,
    "locName": "Minard Mills County Park",
    "latestObsDt": "2026-03-07 14:13",
    "numSpeciesAllTime": 49
  },
  {
    "locId": "L2587690",
    "countryCode": "US",
    "subnational1Code": "US-MI",
    "subnational2Code": "US-MI-075",
    "lat": 42.1127348,
    "lng": -84.4576163,
    "locName": "Mud Lake",
    "latestObsDt": "2025-11-28 09:07",
    "numSpeciesAllTime": 78
  },
  {
    "locId": "L3152270",
    "countryCode": "US",
    "subnational1Code": "US-MI",
    "subnational2Code": "US-MI-075",
    "lat": 42.1570251,
    "lng": -84.1873956,
    "locName": "Norvell Lake (east)",
    "latestObsDt": "2025-11-12 10:19",
    "numSpeciesAllTime": 60
  },
  {
    "locId": "L1813254",
    "countryCode": "US",
    "subnational1Code": "US-MI",
    "subnational2Code": "US-MI-075",
    "lat": 42.1515947,
    "lng": -84.2049965,
    "locName": "Norvell Lake (west)",
    "latestObsDt": "2026-03-18 11:20",
    "numSpeciesAllTime": 130
  },
  {
    "locId": "L4406478",
    "countryCode": "US",
    "subnational1Code": "US-MI",
    "subnational2Code": "US-MI-075",
    "lat": 42.3935563,
    "lng": -84.3481576,
    "locName": "Pleasant Lake",
    "latestObsDt": "2026-04-15 11:08",
    "numSpeciesAllTime": 115
  },
  {
    "locId": "L43269953",
    "countryCode": "US",
    "subnational1Code": "US-MI",
    "subnational2Code": "US-MI-075",
    "lat": 42.396454,
    "lng": -84.243067,
    "locName": "Plum Orchard Rd. fluddle",
    "latestObsDt": "2026-04-18 12:56",
    "numSpeciesAllTime": 120
  },
  {
    "locId": "L2764214",
    "countryCode": "US",
    "subnational1Code": "US-MI",
    "subnational2Code": "US-MI-075",
    "lat": 42.3362028,
    "lng": -84.2273122,
    "locName": "Portage Lake Park",
    "latestObsDt": "2026-04-18 10:55",
    "numSpeciesAllTime": 138
  },
  {
    "locId": "L21395799",
    "countryCode": "US",
    "subnational1Code": "US-MI",
    "subnational2Code": "US-MI-075",
    "lat": 42.282611,
    "lng": -84.413045,
    "locName": "R.A. Greene Park",
    "latestObsDt": "2024-08-06 16:30",
    "numSpeciesAllTime": 75
  },
  {
    "locId": "L10199035",
    "countryCode": "US",
    "subnational1Code": "US-MI",
    "subnational2Code": "US-MI-075",
    "lat": 42.0850884,
    "lng": -84.4695432,
    "locName": "Round Lake County Park",
    "latestObsDt": "2026-04-13 14:23",
    "numSpeciesAllTime": 86
  },
  {
    "locId": "L9438038",
    "countryCode": "US",
    "subnational1Code": "US-MI",
    "subnational2Code": "US-MI-075",
    "lat": 42.2328639,
    "lng": -84.2375028,
    "locName": "Schlee WPA",
    "latestObsDt": "2025-10-15 14:21",
    "numSpeciesAllTime": 66
  },
  {
    "locId": "L1138208",
    "countryCode": "US",
    "subnational1Code": "US-MI",
    "subnational2Code": "US-MI-075",
    "lat": 42.1812147,
    "lng": -84.1568184,
    "locName": "Sharonville SGA (Jackson Co.)",
    "latestObsDt": "2025-10-20 09:04",
    "numSpeciesAllTime": 144
  },
  {
    "locId": "L47434656",
    "countryCode": "US",
    "subnational1Code": "US-MI",
    "subnational2Code": "US-MI-075",
    "lat": 42.1652024,
    "lng": -84.1444474,
    "locName": "Sharonville SGA--Pierce Road Unit",
    "latestObsDt": "2026-04-17 07:47",
    "numSpeciesAllTime": 75
  },
  {
    "locId": "L5928153",
    "countryCode": "US",
    "subnational1Code": "US-MI",
    "subnational2Code": "US-MI-075",
    "lat": 42.3641795,
    "lng": -84.6370371,
    "locName": "Spring Brook Wetlands at Springport Road",
    "latestObsDt": "2026-04-15 08:35",
    "numSpeciesAllTime": 123
  },
  {
    "locId": "L2702785",
    "countryCode": "US",
    "subnational1Code": "US-MI",
    "subnational2Code": "US-MI-075",
    "lat": 42.1617493,
    "lng": -84.4523764,
    "locName": "Springbrook Rd. pond/Mercedes Lake",
    "latestObsDt": "2026-02-25 12:30",
    "numSpeciesAllTime": 58
  },
  {
    "locId": "L4882510",
    "countryCode": "US",
    "subnational1Code": "US-MI",
    "subnational2Code": "US-MI-075",
    "lat": 42.1577006,
    "lng": -84.2799425,
    "locName": "Stony Lake",
    "latestObsDt": "2026-03-07 15:08",
    "numSpeciesAllTime": 127
  },
  {
    "locId": "L2819867",
    "countryCode": "US",
    "subnational1Code": "US-MI",
    "subnational2Code": "US-MI-075",
    "lat": 42.1540187,
    "lng": -84.6501946,
    "locName": "Swains Lake",
    "latestObsDt": "2025-05-21 12:35",
    "numSpeciesAllTime": 76
  },
  {
    "locId": "L1841416",
    "countryCode": "US",
    "subnational1Code": "US-MI",
    "subnational2Code": "US-MI-075",
    "lat": 42.1901847,
    "lng": -84.4032149,
    "locName": "Vandercook Lake",
    "latestObsDt": "2026-04-05 15:26",
    "numSpeciesAllTime": 77
  },
  {
    "locId": "L2435978",
    "countryCode": "US",
    "subnational1Code": "US-MI",
    "subnational2Code": "US-MI-075",
    "lat": 42.0815345,
    "lng": -84.2096901,
    "locName": "Vineyard Lake",
    "latestObsDt": "2025-11-11 11:28",
    "numSpeciesAllTime": 78
  },
  {
    "locId": "L3131941",
    "countryCode": "US",
    "subnational1Code": "US-MI",
    "subnational2Code": "US-MI-075",
    "lat": 42.0908662,
    "lng": -84.2089391,
    "locName": "Vineyard Lake County Park",
    "latestObsDt": "2026-03-17 16:32",
    "numSpeciesAllTime": 82
  },
  {
    "locId": "L56200340",
    "countryCode": "US",
    "subnational1Code": "US-MI",
    "subnational2Code": "US-MI-075",
    "lat": 42.0752996,
    "lng": -84.1522859,
    "locName": "Wamplers Lake (Jackson Co.)",
    "latestObsDt": "2026-03-17 16:08",
    "numSpeciesAllTime": 44
  },
  {
    "locId": "L860168",
    "countryCode": "US",
    "subnational1Code": "US-MI",
    "subnational2Code": "US-MI-075",
    "lat": 42.3738906,
    "lng": -84.1818466,
    "locName": "Waterloo RA (Jackson Co.)",
    "latestObsDt": "2024-08-28 07:55",
    "numSpeciesAllTime": 140
  },
  {
    "locId": "L3079600",
    "countryCode": "US",
    "subnational1Code": "US-MI",
    "subnational2Code": "US-MI-075",
    "lat": 42.3278392,
    "lng": -84.1768169,
    "locName": "Waterloo RA--Baldwin Flooding",
    "latestObsDt": "2026-04-08 12:51",
    "numSpeciesAllTime": 136
  },
  {
    "locId": "L47780324",
    "countryCode": "US",
    "subnational1Code": "US-MI",
    "subnational2Code": "US-MI-075",
    "lat": 42.3256986,
    "lng": -84.1334047,
    "locName": "Waterloo RA--Buck Lake",
    "latestObsDt": "2026-04-02 13:43",
    "numSpeciesAllTime": 67
  },
  {
    "locId": "L5815292",
    "countryCode": "US",
    "subnational1Code": "US-MI",
    "subnational2Code": "US-MI-075",
    "lat": 42.3106556,
    "lng": -84.1914731,
    "locName": "Waterloo RA--Glenn Rd.",
    "latestObsDt": "2026-04-13 12:29",
    "numSpeciesAllTime": 135
  },
  {
    "locId": "L2275063",
    "countryCode": "US",
    "subnational1Code": "US-MI",
    "subnational2Code": "US-MI-075",
    "lat": 42.3237304,
    "lng": -84.146508,
    "locName": "Waterloo RA--Green Rd.",
    "latestObsDt": "2026-04-02 13:35",
    "numSpeciesAllTime": 137
  },
  {
    "locId": "L3528564",
    "countryCode": "US",
    "subnational1Code": "US-MI",
    "subnational2Code": "US-MI-075",
    "lat": 42.3594318,
    "lng": -84.197309,
    "locName": "Waterloo RA--Hoffman Trail",
    "latestObsDt": "2026-03-03 09:08",
    "numSpeciesAllTime": 102
  },
  {
    "locId": "L5559563",
    "countryCode": "US",
    "subnational1Code": "US-MI",
    "subnational2Code": "US-MI-075",
    "lat": 42.3188086,
    "lng": -84.2388445,
    "locName": "Waterloo RA--List Rd.",
    "latestObsDt": "2026-04-14 12:23",
    "numSpeciesAllTime": 134
  },
  {
    "locId": "L3067506",
    "countryCode": "US",
    "subnational1Code": "US-MI",
    "subnational2Code": "US-MI-075",
    "lat": 42.3672831,
    "lng": -84.2028193,
    "locName": "Waterloo RA--N. Moeckel Rd.",
    "latestObsDt": "2025-06-14 11:58",
    "numSpeciesAllTime": 93
  },
  {
    "locId": "L1036071",
    "countryCode": "US",
    "subnational1Code": "US-MI",
    "subnational2Code": "US-MI-075",
    "lat": 42.3338671,
    "lng": -84.2358685,
    "locName": "Waterloo RA--Portage Lake Unit",
    "latestObsDt": "2026-04-18 13:29",
    "numSpeciesAllTime": 219
  },
  {
    "locId": "L771603",
    "countryCode": "US",
    "subnational1Code": "US-MI",
    "subnational2Code": "US-MI-075",
    "lat": 42.3557809,
    "lng": -84.1832167,
    "locName": "Waterloo RA--Riethmiller Rd. grasslands",
    "latestObsDt": "2026-04-12 10:30",
    "numSpeciesAllTime": 172
  },
  {
    "locId": "L11286917",
    "countryCode": "US",
    "subnational1Code": "US-MI",
    "subnational2Code": "US-MI-075",
    "lat": 42.4018535,
    "lng": -84.1791197,
    "locName": "Waterloo RA--Tophith Rd",
    "latestObsDt": "2025-06-14 10:17",
    "numSpeciesAllTime": 69
  },
  {
    "locId": "L2280281",
    "countryCode": "US",
    "subnational1Code": "US-MI",
    "subnational2Code": "US-MI-075",
    "lat": 42.319196,
    "lng": -84.2302036,
    "locName": "Waterloo RA--Willis Rd.",
    "latestObsDt": "2025-12-20 12:20",
    "numSpeciesAllTime": 115
  },
  {
    "locId": "L40883996",
    "countryCode": "US",
    "subnational1Code": "US-MI",
    "subnational2Code": "US-MI-075",
    "lat": 42.387528,
    "lng": -84.191423,
    "locName": "Waterloo and Parks Rd. fluddle",
    "latestObsDt": "2026-04-10 10:26",
    "numSpeciesAllTime": 73
  },
  {
    "locId": "L213224",
    "countryCode": "US",
    "subnational1Code": "US-MI",
    "subnational2Code": "US-MI-075",
    "lat": 42.1296144,
    "lng": -84.1380897,
    "locName": "Watkins Lake SP",
    "latestObsDt": "2026-04-12 11:59",
    "numSpeciesAllTime": 211
  },
  {
    "locId": "L50281545",
    "countryCode": "US",
    "subnational1Code": "US-MI",
    "subnational2Code": "US-MI-075",
    "lat": 42.1448482,
    "lng": -84.1388125,
    "locName": "Watkins Lake SP--Austin Road Access",
    "latestObsDt": "2026-04-15 12:03",
    "numSpeciesAllTime": 34
  },
  {
    "locId": "L6789537",
    "countryCode": "US",
    "subnational1Code": "US-MI",
    "subnational2Code": "US-MI-075",
    "lat": 42.1242197,
    "lng": -84.1642319,
    "locName": "Watkins Lake SP--Fay Lake Rd. Trail",
    "latestObsDt": "2026-03-30 13:14",
    "numSpeciesAllTime": 157
  },
  {
    "locId": "L38458383",
    "countryCode": "US",
    "subnational1Code": "US-MI",
    "subnational2Code": "US-MI-075",
    "lat": 42.3583671,
    "lng": -84.3456135,
    "locName": "White Lake",
    "latestObsDt": "2026-04-15 13:14",
    "numSpeciesAllTime": 49
  },
  {
    "locId": "L4063484",
    "countryCode": "US",
    "subnational1Code": "US-MI",
    "subnational2Code": "US-MI-075",
    "lat": 42.197622,
    "lng": -84.2440224,
    "locName": "Wolf Lake",
    "latestObsDt": "2025-10-05 17:00",
    "numSpeciesAllTime": 66
  },
  {
    "locId": "L2769584",
    "countryCode": "US",
    "subnational1Code": "US-MI",
    "subnational2Code": "US-MI-075",
    "lat": 42.3316233,
    "lng": -84.3065472,
    "locName": "Wooster Rd. bridge (Portage River)",
    "latestObsDt": "2026-04-14 10:59",
    "numSpeciesAllTime": 169
  },
  {
    "locId": "L4658028",
    "countryCode": "US",
    "subnational1Code": "US-MI",
    "subnational2Code": "US-MI-075",
    "lat": 42.1872516,
    "lng": -84.1503865,
    "locName": "stakeout Chuck-will's-widow (2015-2020)",
    "latestObsDt": "2022-06-13 20:06",
    "numSpeciesAllTime": 91
  },
  {
    "locId": "L8130464",
    "countryCode": "US",
    "subnational1Code": "US-MI",
    "subnational2Code": "US-MI-075",
    "lat": 42.182838,
    "lng": -84.4560934,
    "locName": "stakeout Rufous Hummingbird, 2667 Mulligan Dr. (2018)",
    "latestObsDt": "2018-11-14 13:10",
    "numSpeciesAllTime": 24
  }
]