[
  {
    "locId": "L21635388",
    "countryCode": "US",
    "subnational1Code": "US-MI",
    "subnational2Code": "US-MI-161",
    "lat": 42.174523,
    "lng": -83.585635,
    "locName": "Alban Cemetery",
    "latestObsDt": "2025-03-09 16:21",
    "numSpeciesAllTime": 36
  },
  {
    "locId": "L1192994",
    "countryCode": "US",
    "subnational1Code": "US-MI",
    "subnational2Code": "US-MI-161",
    "lat": 42.2268967,
    "lng": -83.7038898,
    "locName": "Ann Arbor Landfill/Wheeler Service Center",
    "latestObsDt": "2025-12-20 10:12",
    "numSpeciesAllTime": 194
  },
  {
    "locId": "L2478564",
    "countryCode": "US",
    "subnational1Code": "US-MI",
    "subnational2Code": "US-MI-161",
    "lat": 42.223349,
    "lng": -83.746615,
    "locName": "Ann Arbor Municipal Airport",
    "latestObsDt": "2025-12-22 11:30",
    "numSpeciesAllTime": 105
  },
  {
    "locId": "L15296715",
    "countryCode": "US",
    "subnational1Code": "US-MI",
    "subnational2Code": "US-MI-161",
    "lat": 42.3763382,
    "lng": -83.6131094,
    "locName": "Anthony & Rose Shatter Family Preserve",
    "latestObsDt": "2025-05-10 15:41",
    "numSpeciesAllTime": 83
  },
  {
    "locId": "L5151062",
    "countryCode": "US",
    "subnational1Code": "US-MI",
    "subnational2Code": "US-MI-161",
    "lat": 42.2829764,
    "lng": -83.7147367,
    "locName": "Arb/Gallup Bike Pathway",
    "latestObsDt": "2025-12-21 14:20",
    "numSpeciesAllTime": 170
  },
  {
    "locId": "L4396071",
    "countryCode": "US",
    "subnational1Code": "US-MI",
    "subnational2Code": "US-MI-161",
    "lat": 42.317808,
    "lng": -83.692929,
    "locName": "Arbor Hills Nature Area",
    "latestObsDt": "2025-12-22 09:23",
    "numSpeciesAllTime": 119
  },
  {
    "locId": "L2477299",
    "countryCode": "US",
    "subnational1Code": "US-MI",
    "subnational2Code": "US-MI-161",
    "lat": 42.289969,
    "lng": -83.7099758,
    "locName": "Arborcrest Cemetery",
    "latestObsDt": "2025-12-30 13:50",
    "numSpeciesAllTime": 42
  },
  {
    "locId": "L1591926",
    "countryCode": "US",
    "subnational1Code": "US-MI",
    "subnational2Code": "US-MI-161",
    "lat": 42.2927543,
    "lng": -83.7439746,
    "locName": "Argo Nature Area",
    "latestObsDt": "2025-12-20 10:23",
    "numSpeciesAllTime": 164
  },
  {
    "locId": "L11468219",
    "countryCode": "US",
    "subnational1Code": "US-MI",
    "subnational2Code": "US-MI-161",
    "lat": 42.095339,
    "lng": -83.879294,
    "locName": "Arkona Rd. fluddle",
    "latestObsDt": "2025-12-09 12:27",
    "numSpeciesAllTime": 49
  },
  {
    "locId": "L1044778",
    "countryCode": "US",
    "subnational1Code": "US-MI",
    "subnational2Code": "US-MI-161",
    "lat": 42.2161865,
    "lng": -83.7508178,
    "locName": "Avis Farms--Woodlot",
    "latestObsDt": "2025-12-22 15:38",
    "numSpeciesAllTime": 51
  },
  {
    "locId": "L605901",
    "countryCode": "US",
    "subnational1Code": "US-MI",
    "subnational2Code": "US-MI-161",
    "lat": 42.2100837,
    "lng": -83.7429428,
    "locName": "Avis Farms--ponds",
    "latestObsDt": "2025-12-22 15:32",
    "numSpeciesAllTime": 137
  },
  {
    "locId": "L1155181",
    "countryCode": "US",
    "subnational1Code": "US-MI",
    "subnational2Code": "US-MI-161",
    "lat": 42.1964139,
    "lng": -83.7305403,
    "locName": "Avis Farms--south",
    "latestObsDt": "2025-09-10 09:17",
    "numSpeciesAllTime": 104
  },
  {
    "locId": "L10323889",
    "countryCode": "US",
    "subnational1Code": "US-MI",
    "subnational2Code": "US-MI-161",
    "lat": 42.334555,
    "lng": -83.8687788,
    "locName": "B2B Trail--Dexter Huron MP to Dexter",
    "latestObsDt": "2025-12-20 13:02",
    "numSpeciesAllTime": 56
  },
  {
    "locId": "L3578883",
    "countryCode": "US",
    "subnational1Code": "US-MI",
    "subnational2Code": "US-MI-161",
    "lat": 42.3435582,
    "lng": -83.8871491,
    "locName": "B2B Trail--Dexter to Hudson Mills Metropark",
    "latestObsDt": "2025-12-20 16:14",
    "numSpeciesAllTime": 131
  },
  {
    "locId": "L16088080",
    "countryCode": "US",
    "subnational1Code": "US-MI",
    "subnational2Code": "US-MI-161",
    "lat": 42.3799744,
    "lng": -84.0780909,
    "locName": "B2B Trail--Lyndon Twp. trailhead",
    "latestObsDt": "2025-12-20 15:03",
    "numSpeciesAllTime": 113
  },
  {
    "locId": "L3143980",
    "countryCode": "US",
    "subnational1Code": "US-MI",
    "subnational2Code": "US-MI-161",
    "lat": 42.3109506,
    "lng": -83.9639783,
    "locName": "Baker Woods Preserve",
    "latestObsDt": "2025-10-26 10:43",
    "numSpeciesAllTime": 139
  },
  {
    "locId": "L2082197",
    "countryCode": "US",
    "subnational1Code": "US-MI",
    "subnational2Code": "US-MI-161",
    "lat": 42.2994767,
    "lng": -83.7427336,
    "locName": "Bandemer Nature Area",
    "latestObsDt": "2025-12-09 14:21",
    "numSpeciesAllTime": 149
  },
  {
    "locId": "L1147171",
    "countryCode": "US",
    "subnational1Code": "US-MI",
    "subnational2Code": "US-MI-161",
    "lat": 42.3044517,
    "lng": -83.7555492,
    "locName": "Barton Nature Area",
    "latestObsDt": "2025-12-24 13:50",
    "numSpeciesAllTime": 199
  },
  {
    "locId": "L284568",
    "countryCode": "US",
    "subnational1Code": "US-MI",
    "subnational2Code": "US-MI-161",
    "lat": 42.3126558,
    "lng": -83.7561071,
    "locName": "Barton Pond",
    "latestObsDt": "2025-12-20 07:47",
    "numSpeciesAllTime": 192
  },
  {
    "locId": "L24140552",
    "countryCode": "US",
    "subnational1Code": "US-MI",
    "subnational2Code": "US-MI-161",
    "lat": 42.3368006,
    "lng": -83.9546368,
    "locName": "Beach Road wetland",
    "latestObsDt": "2025-08-06 11:46",
    "numSpeciesAllTime": 41
  },
  {
    "locId": "L21101267",
    "countryCode": "US",
    "subnational1Code": "US-MI",
    "subnational2Code": "US-MI-161",
    "lat": 42.2592184,
    "lng": -83.6993803,
    "locName": "Berkshire Creek Nature Area",
    "latestObsDt": "2025-12-20 15:15",
    "numSpeciesAllTime": 36
  },
  {
    "locId": "L24337426",
    "countryCode": "US",
    "subnational1Code": "US-MI",
    "subnational2Code": "US-MI-161",
    "lat": 42.2815713,
    "lng": -83.7862778,
    "locName": "Bethlehem Cemetery",
    "latestObsDt": "2025-12-20 11:28",
    "numSpeciesAllTime": 52
  },
  {
    "locId": "L1519626",
    "countryCode": "US",
    "subnational1Code": "US-MI",
    "subnational2Code": "US-MI-161",
    "lat": 42.3042843,
    "lng": -83.7607666,
    "locName": "Bird Hills Nature Area",
    "latestObsDt": "2025-12-20 13:19",
    "numSpeciesAllTime": 153
  },
  {
    "locId": "L2082199",
    "countryCode": "US",
    "subnational1Code": "US-MI",
    "subnational2Code": "US-MI-161",
    "lat": 42.3089427,
    "lng": -83.758167,
    "locName": "Bird Hills Nature Area--North",
    "latestObsDt": "2025-12-12 16:29",
    "numSpeciesAllTime": 124
  },
  {
    "locId": "L47086144",
    "countryCode": "US",
    "subnational1Code": "US-MI",
    "subnational2Code": "US-MI-161",
    "lat": 42.3034778,
    "lng": -83.6379338,
    "locName": "BirdSong Nature Preserve, Washtenaw US-MI",
    "latestObsDt": "2025-12-27 10:34",
    "numSpeciesAllTime": 124
  },
  {
    "locId": "L2082201",
    "countryCode": "US",
    "subnational1Code": "US-MI",
    "subnational2Code": "US-MI-161",
    "lat": 42.303809,
    "lng": -83.7296927,
    "locName": "Black Pond Woods Nature Area",
    "latestObsDt": "2025-12-20 10:38",
    "numSpeciesAllTime": 140
  },
  {
    "locId": "L2082204",
    "countryCode": "US",
    "subnational1Code": "US-MI",
    "subnational2Code": "US-MI-161",
    "lat": 42.2951197,
    "lng": -83.7490153,
    "locName": "Bluffs Nature Area",
    "latestObsDt": "2025-12-09 14:44",
    "numSpeciesAllTime": 119
  },
  {
    "locId": "L2082220",
    "countryCode": "US",
    "subnational1Code": "US-MI",
    "subnational2Code": "US-MI-161",
    "lat": 42.299032,
    "lng": -83.7930894,
    "locName": "Botsford Recreational Preserve",
    "latestObsDt": "2025-11-18 14:24",
    "numSpeciesAllTime": 92
  },
  {
    "locId": "L28604662",
    "countryCode": "US",
    "subnational1Code": "US-MI",
    "subnational2Code": "US-MI-161",
    "lat": 42.408416,
    "lng": -84.102352,
    "locName": "Boyce Lake",
    "latestObsDt": "2025-11-14 09:41",
    "numSpeciesAllTime": 40
  },
  {
    "locId": "L895861",
    "countryCode": "US",
    "subnational1Code": "US-MI",
    "subnational2Code": "US-MI-161",
    "lat": 42.2349202,
    "lng": -83.9006352,
    "locName": "Brauer Preserve",
    "latestObsDt": "2025-12-27 09:55",
    "numSpeciesAllTime": 146
  },
  {
    "locId": "L11958829",
    "countryCode": "US",
    "subnational1Code": "US-MI",
    "subnational2Code": "US-MI-161",
    "lat": 42.3307422,
    "lng": -83.7360871,
    "locName": "Braun's Tree Farm",
    "latestObsDt": "2024-10-10 13:36",
    "numSpeciesAllTime": 57
  },
  {
    "locId": "L4576737",
    "countryCode": "US",
    "subnational1Code": "US-MI",
    "subnational2Code": "US-MI-161",
    "lat": 42.1737858,
    "lng": -83.7799178,
    "locName": "Brecon Park",
    "latestObsDt": "2025-10-16 07:49",
    "numSpeciesAllTime": 81
  },
  {
    "locId": "L4512663",
    "countryCode": "US",
    "subnational1Code": "US-MI",
    "subnational2Code": "US-MI-161",
    "lat": 42.3167455,
    "lng": -83.7956616,
    "locName": "Brokaw Nature Area",
    "latestObsDt": "2025-11-18 13:45",
    "numSpeciesAllTime": 117
  },
  {
    "locId": "L1042198",
    "countryCode": "US",
    "subnational1Code": "US-MI",
    "subnational2Code": "US-MI-161",
    "lat": 42.248534,
    "lng": -83.7108421,
    "locName": "Buhr Park",
    "latestObsDt": "2025-12-05 23:45",
    "numSpeciesAllTime": 66
  },
  {
    "locId": "L16131127",
    "countryCode": "US",
    "subnational1Code": "US-MI",
    "subnational2Code": "US-MI-161",
    "lat": 42.2661805,
    "lng": -83.7289889,
    "locName": "Burns Park and School",
    "latestObsDt": "2025-12-20 12:41",
    "numSpeciesAllTime": 53
  },
  {
    "locId": "L1487097",
    "countryCode": "US",
    "subnational1Code": "US-MI",
    "subnational2Code": "US-MI-161",
    "lat": 42.3241265,
    "lng": -83.8408471,
    "locName": "Burns-Stokes Preserve",
    "latestObsDt": "2025-12-20 09:47",
    "numSpeciesAllTime": 147
  },
  {
    "locId": "L7731846",
    "countryCode": "US",
    "subnational1Code": "US-MI",
    "subnational2Code": "US-MI-161",
    "lat": 42.3199767,
    "lng": -83.7119256,
    "locName": "Buttonbush Nature Area",
    "latestObsDt": "2025-07-02 07:34",
    "numSpeciesAllTime": 65
  },
  {
    "locId": "L1018790",
    "countryCode": "US",
    "subnational1Code": "US-MI",
    "subnational2Code": "US-MI-161",
    "lat": 42.3134968,
    "lng": -84.0996552,
    "locName": "Cavanaugh Lake",
    "latestObsDt": "2025-11-10 08:54",
    "numSpeciesAllTime": 105
  },
  {
    "locId": "L2082222",
    "countryCode": "US",
    "subnational1Code": "US-MI",
    "subnational2Code": "US-MI-161",
    "lat": 42.2920722,
    "lng": -83.725723,
    "locName": "Cedar Bend Nature Area",
    "latestObsDt": "2025-12-20 13:03",
    "numSpeciesAllTime": 114
  },
  {
    "locId": "L1018788",
    "countryCode": "US",
    "subnational1Code": "US-MI",
    "subnational2Code": "US-MI-161",
    "lat": 42.3173683,
    "lng": -84.0757084,
    "locName": "Cedar Lake Campground",
    "latestObsDt": "2025-12-20 13:30",
    "numSpeciesAllTime": 152
  },
  {
    "locId": "L1124964",
    "countryCode": "US",
    "subnational1Code": "US-MI",
    "subnational2Code": "US-MI-161",
    "lat": 42.3291717,
    "lng": -83.9686775,
    "locName": "Chelsea SGA--Four Mile Lake",
    "latestObsDt": "2025-11-30 15:39",
    "numSpeciesAllTime": 238
  },
  {
    "locId": "L896482",
    "countryCode": "US",
    "subnational1Code": "US-MI",
    "subnational2Code": "US-MI-161",
    "lat": 42.3037691,
    "lng": -83.639136,
    "locName": "Cherry Hill Nature Preserve",
    "latestObsDt": "2025-12-27 11:56",
    "numSpeciesAllTime": 158
  },
  {
    "locId": "L6600072",
    "countryCode": "US",
    "subnational1Code": "US-MI",
    "subnational2Code": "US-MI-161",
    "lat": 42.151409,
    "lng": -84.038196,
    "locName": "Chi-Bro Park",
    "latestObsDt": "2025-12-26 16:30",
    "numSpeciesAllTime": 66
  },
  {
    "locId": "L5675422",
    "countryCode": "US",
    "subnational1Code": "US-MI",
    "subnational2Code": "US-MI-161",
    "lat": 42.2361912,
    "lng": -84.0618682,
    "locName": "Clark and Avis Spike Preserve",
    "latestObsDt": "2025-11-06 14:59",
    "numSpeciesAllTime": 125
  },
  {
    "locId": "L16222213",
    "countryCode": "US",
    "subnational1Code": "US-MI",
    "subnational2Code": "US-MI-161",
    "lat": 42.2724807,
    "lng": -83.6829567,
    "locName": "Concordia University Ann Arbor",
    "latestObsDt": "2025-12-20 11:05",
    "numSpeciesAllTime": 107
  },
  {
    "locId": "L5579249",
    "countryCode": "US",
    "subnational1Code": "US-MI",
    "subnational2Code": "US-MI-161",
    "lat": 42.2927626,
    "lng": -83.5966498,
    "locName": "Conservancy Farm",
    "latestObsDt": "2025-12-27 13:12",
    "numSpeciesAllTime": 177
  },
  {
    "locId": "L612840",
    "countryCode": "US",
    "subnational1Code": "US-MI",
    "subnational2Code": "US-MI-161",
    "lat": 42.2552048,
    "lng": -83.7072372,
    "locName": "County Farm Park",
    "latestObsDt": "2025-12-27 11:22",
    "numSpeciesAllTime": 163
  },
  {
    "locId": "L17395548",
    "countryCode": "US",
    "subnational1Code": "US-MI",
    "subnational2Code": "US-MI-161",
    "lat": 42.2490333,
    "lng": -83.7535093,
    "locName": "Cranbrook Park",
    "latestObsDt": "2025-10-01 13:53",
    "numSpeciesAllTime": 49
  },
  {
    "locId": "L11099258",
    "countryCode": "US",
    "subnational1Code": "US-MI",
    "subnational2Code": "US-MI-161",
    "lat": 42.3805511,
    "lng": -83.6072892,
    "locName": "Creekshead Nature Preserve",
    "latestObsDt": "2025-05-10 08:45",
    "numSpeciesAllTime": 76
  },
  {
    "locId": "L16233726",
    "countryCode": "US",
    "subnational1Code": "US-MI",
    "subnational2Code": "US-MI-161",
    "lat": 42.1887733,
    "lng": -83.5807215,
    "locName": "Creekside Village pond",
    "latestObsDt": "2024-08-18 15:12",
    "numSpeciesAllTime": 40
  },
  {
    "locId": "L28539979",
    "countryCode": "US",
    "subnational1Code": "US-MI",
    "subnational2Code": "US-MI-161",
    "lat": 42.410986,
    "lng": -84.02721,
    "locName": "Crescent Hill",
    "latestObsDt": "2025-11-14 11:20",
    "numSpeciesAllTime": 54
  },
  {
    "locId": "L2111486",
    "countryCode": "US",
    "subnational1Code": "US-MI",
    "subnational2Code": "US-MI-161",
    "lat": 42.1606677,
    "lng": -83.7874889,
    "locName": "Curtiss Park",
    "latestObsDt": "2025-12-23 10:14",
    "numSpeciesAllTime": 122
  },
  {
    "locId": "L1035738",
    "countryCode": "US",
    "subnational1Code": "US-MI",
    "subnational2Code": "US-MI-161",
    "lat": 42.3498067,
    "lng": -83.8660884,
    "locName": "Daly Rd. pond",
    "latestObsDt": "2025-11-25 16:18",
    "numSpeciesAllTime": 110
  },
  {
    "locId": "L908259",
    "countryCode": "US",
    "subnational1Code": "US-MI",
    "subnational2Code": "US-MI-161",
    "lat": 42.2726409,
    "lng": -83.8490295,
    "locName": "DeVine Preserve",
    "latestObsDt": "2025-12-20 09:07",
    "numSpeciesAllTime": 171
  },
  {
    "locId": "L2190747",
    "countryCode": "US",
    "subnational1Code": "US-MI",
    "subnational2Code": "US-MI-161",
    "lat": 42.3310753,
    "lng": -83.8074017,
    "locName": "Delhi Metropark",
    "latestObsDt": "2025-12-27 09:58",
    "numSpeciesAllTime": 134
  },
  {
    "locId": "L1079577",
    "countryCode": "US",
    "subnational1Code": "US-MI",
    "subnational2Code": "US-MI-161",
    "lat": 42.3381142,
    "lng": -83.8109366,
    "locName": "Delhi Overlook",
    "latestObsDt": "2025-12-20 13:12",
    "numSpeciesAllTime": 117
  },
  {
    "locId": "L12788185",
    "countryCode": "US",
    "subnational1Code": "US-MI",
    "subnational2Code": "US-MI-161",
    "lat": 42.3259636,
    "lng": -83.8782799,
    "locName": "Dexter Business & Research Park pond",
    "latestObsDt": "2024-12-21 10:11",
    "numSpeciesAllTime": 38
  },
  {
    "locId": "L1603242",
    "countryCode": "US",
    "subnational1Code": "US-MI",
    "subnational2Code": "US-MI-161",
    "lat": 42.33203,
    "lng": -83.8625895,
    "locName": "Dexter Huron Metropark",
    "latestObsDt": "2025-12-20 09:55",
    "numSpeciesAllTime": 137
  },
  {
    "locId": "L2082226",
    "countryCode": "US",
    "subnational1Code": "US-MI",
    "subnational2Code": "US-MI-161",
    "lat": 42.3156547,
    "lng": -83.7204659,
    "locName": "Dhu Varren Woods Nature Area",
    "latestObsDt": "2025-12-20 14:12",
    "numSpeciesAllTime": 97
  },
  {
    "locId": "L2082229",
    "countryCode": "US",
    "subnational1Code": "US-MI",
    "subnational2Code": "US-MI-161",
    "lat": 42.2644158,
    "lng": -83.7782621,
    "locName": "Dicken Woods Nature Area",
    "latestObsDt": "2025-12-20 09:35",
    "numSpeciesAllTime": 83
  },
  {
    "locId": "L20595267",
    "countryCode": "US",
    "subnational1Code": "US-MI",
    "subnational2Code": "US-MI-161",
    "lat": 42.3912882,
    "lng": -83.6634294,
    "locName": "Dixboro and Five Mile Fluddle",
    "latestObsDt": "2025-09-10 13:46",
    "numSpeciesAllTime": 100
  },
  {
    "locId": "L210751",
    "countryCode": "US",
    "subnational1Code": "US-MI",
    "subnational2Code": "US-MI-161",
    "lat": 42.280502,
    "lng": -83.7965012,
    "locName": "Dolph Nature Area",
    "latestObsDt": "2025-12-20 09:26",
    "numSpeciesAllTime": 196
  },
  {
    "locId": "L2082234",
    "countryCode": "US",
    "subnational1Code": "US-MI",
    "subnational2Code": "US-MI-161",
    "lat": 42.2756894,
    "lng": -83.7972522,
    "locName": "Dolph Nature Area--South",
    "latestObsDt": "2025-09-26 11:44",
    "numSpeciesAllTime": 91
  },
  {
    "locId": "L19212791",
    "countryCode": "US",
    "subnational1Code": "US-MI",
    "subnational2Code": "US-MI-161",
    "lat": 42.3341639,
    "lng": -83.6621412,
    "locName": "Dominican Meadows Preserve",
    "latestObsDt": "2025-12-27 09:37",
    "numSpeciesAllTime": 96
  },
  {
    "locId": "L8146557",
    "countryCode": "US",
    "subnational1Code": "US-MI",
    "subnational2Code": "US-MI-161",
    "lat": 42.315379,
    "lng": -83.684363,
    "locName": "Domino's Farms",
    "latestObsDt": "2025-12-30 12:22",
    "numSpeciesAllTime": 142
  },
  {
    "locId": "L1371386",
    "countryCode": "US",
    "subnational1Code": "US-MI",
    "subnational2Code": "US-MI-161",
    "lat": 42.0909473,
    "lng": -83.7013345,
    "locName": "Draper-Houston Meadows Preserve",
    "latestObsDt": "2025-12-27 09:49",
    "numSpeciesAllTime": 147
  },
  {
    "locId": "L16929722",
    "countryCode": "US",
    "subnational1Code": "US-MI",
    "subnational2Code": "US-MI-161",
    "lat": 42.2466848,
    "lng": -83.6242184,
    "locName": "Eastern Michigan University campus",
    "latestObsDt": "2025-11-04 07:33",
    "numSpeciesAllTime": 50
  },
  {
    "locId": "L961963",
    "countryCode": "US",
    "subnational1Code": "US-MI",
    "subnational2Code": "US-MI-161",
    "lat": 42.2736253,
    "lng": -83.768574,
    "locName": "Eberwhite Woods",
    "latestObsDt": "2025-12-30 14:11",
    "numSpeciesAllTime": 160
  },
  {
    "locId": "L9971591",
    "countryCode": "US",
    "subnational1Code": "US-MI",
    "subnational2Code": "US-MI-161",
    "lat": 42.1367607,
    "lng": -83.9793366,
    "locName": "Ervin-Stucki Preserve",
    "latestObsDt": "2025-12-09 12:44",
    "numSpeciesAllTime": 107
  },
  {
    "locId": "L14050239",
    "countryCode": "US",
    "subnational1Code": "US-MI",
    "subnational2Code": "US-MI-161",
    "lat": 42.2938181,
    "lng": -83.7407327,
    "locName": "Fairview Cemetery",
    "latestObsDt": "2025-11-25 14:58",
    "numSpeciesAllTime": 73
  },
  {
    "locId": "L1474199",
    "countryCode": "US",
    "subnational1Code": "US-MI",
    "subnational2Code": "US-MI-161",
    "lat": 42.3633859,
    "lng": -83.8369207,
    "locName": "Farrel Rd. pond",
    "latestObsDt": "2024-08-31 12:49",
    "numSpeciesAllTime": 62
  },
  {
    "locId": "L10302500",
    "countryCode": "US",
    "subnational1Code": "US-MI",
    "subnational2Code": "US-MI-161",
    "lat": 42.1526998,
    "lng": -83.8646236,
    "locName": "Feldkamp Rd.",
    "latestObsDt": "2025-12-23 09:12",
    "numSpeciesAllTime": 76
  },
  {
    "locId": "L11253243",
    "countryCode": "US",
    "subnational1Code": "US-MI",
    "subnational2Code": "US-MI-161",
    "lat": 42.2860839,
    "lng": -83.9761454,
    "locName": "Fletcher Rd. wetland",
    "latestObsDt": "2025-05-10 11:43",
    "numSpeciesAllTime": 64
  },
  {
    "locId": "L7170342",
    "countryCode": "US",
    "subnational1Code": "US-MI",
    "subnational2Code": "US-MI-161",
    "lat": 42.2947575,
    "lng": -83.686544,
    "locName": "Folkstone Park",
    "latestObsDt": "2025-07-11 14:46",
    "numSpeciesAllTime": 46
  },
  {
    "locId": "L21397748",
    "countryCode": "US",
    "subnational1Code": "US-MI",
    "subnational2Code": "US-MI-161",
    "lat": 42.2059656,
    "lng": -83.5996991,
    "locName": "Ford Heritage Park",
    "latestObsDt": "2025-11-25 09:54",
    "numSpeciesAllTime": 55
  },
  {
    "locId": "L1124805",
    "countryCode": "US",
    "subnational1Code": "US-MI",
    "subnational2Code": "US-MI-161",
    "lat": 42.2186656,
    "lng": -83.5890484,
    "locName": "Ford Lake",
    "latestObsDt": "2025-12-30 09:48",
    "numSpeciesAllTime": 144
  },
  {
    "locId": "L14395009",
    "countryCode": "US",
    "subnational1Code": "US-MI",
    "subnational2Code": "US-MI-161",
    "lat": 42.2099067,
    "lng": -83.5775546,
    "locName": "Ford Lake Park",
    "latestObsDt": "2025-12-04 09:26",
    "numSpeciesAllTime": 137
  },
  {
    "locId": "L26692406",
    "countryCode": "US",
    "subnational1Code": "US-MI",
    "subnational2Code": "US-MI-161",
    "lat": 42.2029631,
    "lng": -83.5748062,
    "locName": "Ford Lake Wetland Complex",
    "latestObsDt": "2025-12-30 15:03",
    "numSpeciesAllTime": 63
  },
  {
    "locId": "L1324728",
    "countryCode": "US",
    "subnational1Code": "US-MI",
    "subnational2Code": "US-MI-161",
    "lat": 42.2061917,
    "lng": -83.5577067,
    "locName": "Ford Lake--Bridge Rd. dam",
    "latestObsDt": "2025-12-30 15:58",
    "numSpeciesAllTime": 115
  },
  {
    "locId": "L5068170",
    "countryCode": "US",
    "subnational1Code": "US-MI",
    "subnational2Code": "US-MI-161",
    "lat": 42.278324,
    "lng": -83.72906,
    "locName": "Forest Hill Cemetery ",
    "latestObsDt": "2025-12-20 16:40",
    "numSpeciesAllTime": 32
  },
  {
    "locId": "L2082236",
    "countryCode": "US",
    "subnational1Code": "US-MI",
    "subnational2Code": "US-MI-161",
    "lat": 42.2703862,
    "lng": -83.6577559,
    "locName": "Forest Nature Area",
    "latestObsDt": "2025-12-20 09:07",
    "numSpeciesAllTime": 130
  },
  {
    "locId": "L2115507",
    "countryCode": "US",
    "subnational1Code": "US-MI",
    "subnational2Code": "US-MI-161",
    "lat": 42.3165432,
    "lng": -83.768177,
    "locName": "Foster Nature Area",
    "latestObsDt": "2025-12-29 14:48",
    "numSpeciesAllTime": 149
  },
  {
    "locId": "L16962498",
    "countryCode": "US",
    "subnational1Code": "US-MI",
    "subnational2Code": "US-MI-161",
    "lat": 42.3168636,
    "lng": -83.7780377,
    "locName": "Foster Rd. bridge",
    "latestObsDt": "2025-12-29 15:00",
    "numSpeciesAllTime": 80
  },
  {
    "locId": "L3079640",
    "countryCode": "US",
    "subnational1Code": "US-MI",
    "subnational2Code": "US-MI-161",
    "lat": 42.3158768,
    "lng": -83.8319975,
    "locName": "Fox Science Preserve",
    "latestObsDt": "2025-12-20 12:54",
    "numSpeciesAllTime": 133
  },
  {
    "locId": "L2082240",
    "countryCode": "US",
    "subnational1Code": "US-MI",
    "subnational2Code": "US-MI-161",
    "lat": 42.318828,
    "lng": -83.7252831,
    "locName": "Foxfire West Park",
    "latestObsDt": "2025-06-09 06:32",
    "numSpeciesAllTime": 58
  },
  {
    "locId": "L15503863",
    "countryCode": "US",
    "subnational1Code": "US-MI",
    "subnational2Code": "US-MI-161",
    "lat": 42.3188762,
    "lng": -83.657467,
    "locName": "Freeman Environmental Education Center",
    "latestObsDt": "2025-12-27 09:17",
    "numSpeciesAllTime": 71
  },
  {
    "locId": "L5841460",
    "countryCode": "US",
    "subnational1Code": "US-MI",
    "subnational2Code": "US-MI-161",
    "lat": 42.2699734,
    "lng": -83.7648243,
    "locName": "Fritz Park",
    "latestObsDt": "2025-12-20 12:16",
    "numSpeciesAllTime": 97
  },
  {
    "locId": "L5669027",
    "countryCode": "US",
    "subnational1Code": "US-MI",
    "subnational2Code": "US-MI-161",
    "lat": 42.247545,
    "lng": -83.612008,
    "locName": "Frog Island Park",
    "latestObsDt": "2025-10-18 14:08",
    "numSpeciesAllTime": 105
  },
  {
    "locId": "L7071456",
    "countryCode": "US",
    "subnational1Code": "US-MI",
    "subnational2Code": "US-MI-161",
    "lat": 42.2874531,
    "lng": -83.7286823,
    "locName": "Fuller Park",
    "latestObsDt": "2025-12-23 14:14",
    "numSpeciesAllTime": 103
  },
  {
    "locId": "L797059",
    "countryCode": "US",
    "subnational1Code": "US-MI",
    "subnational2Code": "US-MI-161",
    "lat": 42.2775628,
    "lng": -83.7036753,
    "locName": "Furstenberg Park",
    "latestObsDt": "2025-12-30 10:39",
    "numSpeciesAllTime": 196
  },
  {
    "locId": "L284571",
    "countryCode": "US",
    "subnational1Code": "US-MI",
    "subnational2Code": "US-MI-161",
    "lat": 42.273276,
    "lng": -83.693397,
    "locName": "Gallup Park",
    "latestObsDt": "2025-12-30 16:38",
    "numSpeciesAllTime": 197
  },
  {
    "locId": "L9450694",
    "countryCode": "US",
    "subnational1Code": "US-MI",
    "subnational2Code": "US-MI-161",
    "lat": 42.2979115,
    "lng": -83.7780885,
    "locName": "Garden Homes Park",
    "latestObsDt": "2025-12-20 11:45",
    "numSpeciesAllTime": 84
  },
  {
    "locId": "L2707280",
    "countryCode": "US",
    "subnational1Code": "US-MI",
    "subnational2Code": "US-MI-161",
    "lat": 42.2707997,
    "lng": -83.6711213,
    "locName": "Geddes Dam",
    "latestObsDt": "2025-12-20 11:17",
    "numSpeciesAllTime": 107
  },
  {
    "locId": "L1018782",
    "countryCode": "US",
    "subnational1Code": "US-MI",
    "subnational2Code": "US-MI-161",
    "lat": 42.3231592,
    "lng": -84.0858364,
    "locName": "Gerald E. Eddy Discovery Center",
    "latestObsDt": "2025-10-13 10:01",
    "numSpeciesAllTime": 154
  },
  {
    "locId": "L11932941",
    "countryCode": "US",
    "subnational1Code": "US-MI",
    "subnational2Code": "US-MI-161",
    "lat": 42.33784,
    "lng": -83.73274,
    "locName": "Gleaner Hall Rd. marsh",
    "latestObsDt": "2024-05-20 09:00",
    "numSpeciesAllTime": 58
  },
  {
    "locId": "L30112354",
    "countryCode": "US",
    "subnational1Code": "US-MI",
    "subnational2Code": "US-MI-161",
    "lat": 42.4026688,
    "lng": -84.0276441,
    "locName": "Goodband Rd. marsh",
    "latestObsDt": "2025-11-14 12:26",
    "numSpeciesAllTime": 68
  },
  {
    "locId": "L1270493",
    "countryCode": "US",
    "subnational1Code": "US-MI",
    "subnational2Code": "US-MI-161",
    "lat": 42.1038902,
    "lng": -83.6367702,
    "locName": "Gooding Rd Sod Farm",
    "latestObsDt": "2023-10-07 10:23",
    "numSpeciesAllTime": 54
  },
  {
    "locId": "L7951455",
    "countryCode": "US",
    "subnational1Code": "US-MI",
    "subnational2Code": "US-MI-161",
    "lat": 42.256883,
    "lng": -84.1306087,
    "locName": "Goose Lake SGA",
    "latestObsDt": "2025-08-01 12:31",
    "numSpeciesAllTime": 113
  },
  {
    "locId": "L8868414",
    "countryCode": "US",
    "subnational1Code": "US-MI",
    "subnational2Code": "US-MI-161",
    "lat": 42.3211573,
    "lng": -83.5648086,
    "locName": "Gotfredson Rd. and Ford Rd.",
    "latestObsDt": "2025-12-13 15:27",
    "numSpeciesAllTime": 72
  },
  {
    "locId": "L675460",
    "countryCode": "US",
    "subnational1Code": "US-MI",
    "subnational2Code": "US-MI-161",
    "lat": 42.3285372,
    "lng": -83.5669041,
    "locName": "Gotfredson Rd. marsh",
    "latestObsDt": "2025-12-27 14:26",
    "numSpeciesAllTime": 151
  },
  {
    "locId": "L30060968",
    "countryCode": "US",
    "subnational1Code": "US-MI",
    "subnational2Code": "US-MI-161",
    "lat": 42.239634,
    "lng": -84.102518,
    "locName": "Grass Lake Rd. wetlands",
    "latestObsDt": "2025-08-01 11:41",
    "numSpeciesAllTime": 35
  },
  {
    "locId": "L1511045",
    "countryCode": "US",
    "subnational1Code": "US-MI",
    "subnational2Code": "US-MI-161",
    "lat": 42.2354632,
    "lng": -84.0641227,
    "locName": "Grass Lake Sanctuary",
    "latestObsDt": "2023-08-10 19:47",
    "numSpeciesAllTime": 62
  },
  {
    "locId": "L2082243",
    "countryCode": "US",
    "subnational1Code": "US-MI",
    "subnational2Code": "US-MI-161",
    "lat": 42.2581668,
    "lng": -83.7617934,
    "locName": "Greenview/Pioneer",
    "latestObsDt": "2025-12-20 08:06",
    "numSpeciesAllTime": 137
  },
  {
    "locId": "L1035799",
    "countryCode": "US",
    "subnational1Code": "US-MI",
    "subnational2Code": "US-MI-161",
    "lat": 42.3699354,
    "lng": -83.8501132,
    "locName": "Gregory Rd. pond",
    "latestObsDt": "2025-12-20 13:54",
    "numSpeciesAllTime": 58
  },
  {
    "locId": "L11867399",
    "countryCode": "US",
    "subnational1Code": "US-MI",
    "subnational2Code": "US-MI-161",
    "lat": 42.2387409,
    "lng": -83.6376983,
    "locName": "Grizzly Nature Trail",
    "latestObsDt": "2025-12-21 09:16",
    "numSpeciesAllTime": 86
  },
  {
    "locId": "L27588959",
    "countryCode": "US",
    "subnational1Code": "US-MI",
    "subnational2Code": "US-MI-161",
    "lat": 42.138967,
    "lng": -83.8562102,
    "locName": "Hammer Pit (access revoked 2024, no access)",
    "latestObsDt": "2025-08-24 14:34",
    "numSpeciesAllTime": 90
  },
  {
    "locId": "L11166373",
    "countryCode": "US",
    "subnational1Code": "US-MI",
    "subnational2Code": "US-MI-161",
    "lat": 42.2828895,
    "lng": -83.7609948,
    "locName": "Hannah Nature Area",
    "latestObsDt": "2025-07-24 10:30",
    "numSpeciesAllTime": 50
  },
  {
    "locId": "L2082244",
    "countryCode": "US",
    "subnational1Code": "US-MI",
    "subnational2Code": "US-MI-161",
    "lat": 42.2672502,
    "lng": -83.7819529,
    "locName": "Hansen Nature Area",
    "latestObsDt": "2025-12-20 10:45",
    "numSpeciesAllTime": 66
  },
  {
    "locId": "L2372685",
    "countryCode": "US",
    "subnational1Code": "US-MI",
    "subnational2Code": "US-MI-161",
    "lat": 42.1733275,
    "lng": -83.6290455,
    "locName": "Hewen's Creek Park",
    "latestObsDt": "2025-12-25 15:59",
    "numSpeciesAllTime": 166
  },
  {
    "locId": "L9698769",
    "countryCode": "US",
    "subnational1Code": "US-MI",
    "subnational2Code": "US-MI-161",
    "lat": 42.311853,
    "lng": -83.740662,
    "locName": "Hickory Nature Area",
    "latestObsDt": "2025-12-22 12:11",
    "numSpeciesAllTime": 51
  },
  {
    "locId": "L12728771",
    "countryCode": "US",
    "subnational1Code": "US-MI",
    "subnational2Code": "US-MI-161",
    "lat": 42.2089394,
    "lng": -83.6694074,
    "locName": "Hickory Woods Park",
    "latestObsDt": "2025-12-23 10:13",
    "numSpeciesAllTime": 125
  },
  {
    "locId": "L12322793",
    "countryCode": "US",
    "subnational1Code": "US-MI",
    "subnational2Code": "US-MI-161",
    "lat": 42.2582244,
    "lng": -83.6094363,
    "locName": "Highland Cemetery",
    "latestObsDt": "2025-11-29 11:29",
    "numSpeciesAllTime": 98
  },
  {
    "locId": "L931979",
    "countryCode": "US",
    "subnational1Code": "US-MI",
    "subnational2Code": "US-MI-161",
    "lat": 42.3235876,
    "lng": -83.6709309,
    "locName": "Horner-McLaughlin Woods/Raymond F. Goodrich Preserve",
    "latestObsDt": "2025-12-20 10:37",
    "numSpeciesAllTime": 84
  },
  {
    "locId": "L188710",
    "countryCode": "US",
    "subnational1Code": "US-MI",
    "subnational2Code": "US-MI-161",
    "lat": 42.3831,
    "lng": -83.91289,
    "locName": "Hudson Mills Metropark",
    "latestObsDt": "2025-12-27 16:00",
    "numSpeciesAllTime": 183
  },
  {
    "locId": "L14017484",
    "countryCode": "US",
    "subnational1Code": "US-MI",
    "subnational2Code": "US-MI-161",
    "lat": 42.29158,
    "lng": -83.751696,
    "locName": "Hunt Park",
    "latestObsDt": "2025-12-20 12:40",
    "numSpeciesAllTime": 40
  },
  {
    "locId": "L2082246",
    "countryCode": "US",
    "subnational1Code": "US-MI",
    "subnational2Code": "US-MI-161",
    "lat": 42.265702,
    "lng": -83.6986971,
    "locName": "Huron Hills Golf Course",
    "latestObsDt": "2025-12-20 13:44",
    "numSpeciesAllTime": 126
  },
  {
    "locId": "L1032828",
    "countryCode": "US",
    "subnational1Code": "US-MI",
    "subnational2Code": "US-MI-161",
    "lat": 42.2654003,
    "lng": -83.6917019,
    "locName": "Huron Parkway Nature Area",
    "latestObsDt": "2025-12-20 14:23",
    "numSpeciesAllTime": 87
  },
  {
    "locId": "L18274968",
    "countryCode": "US",
    "subnational1Code": "US-MI",
    "subnational2Code": "US-MI-161",
    "lat": 42.3127811,
    "lng": -83.7916523,
    "locName": "Huron River Oxbow",
    "latestObsDt": "2025-12-02 09:20",
    "numSpeciesAllTime": 97
  },
  {
    "locId": "L2217777",
    "countryCode": "US",
    "subnational1Code": "US-MI",
    "subnational2Code": "US-MI-161",
    "lat": 42.3220476,
    "lng": -83.8080025,
    "locName": "Huron River--Delhi Rapids to Tubbs Rd. Bridge",
    "latestObsDt": "2025-07-13 15:33",
    "numSpeciesAllTime": 67
  },
  {
    "locId": "L473490",
    "countryCode": "US",
    "subnational1Code": "US-MI",
    "subnational2Code": "US-MI-161",
    "lat": 42.2595723,
    "lng": -83.6381006,
    "locName": "Huron River--Superior Rd.",
    "latestObsDt": "2025-12-20 12:43",
    "numSpeciesAllTime": 110
  },
  {
    "locId": "L459615",
    "countryCode": "US",
    "subnational1Code": "US-MI",
    "subnational2Code": "US-MI-161",
    "lat": 42.4059513,
    "lng": -83.7960634,
    "locName": "Independence Lake County Park",
    "latestObsDt": "2025-12-25 11:43",
    "numSpeciesAllTime": 207
  },
  {
    "locId": "L48562004",
    "countryCode": "US",
    "subnational1Code": "US-MI",
    "subnational2Code": "US-MI-161",
    "lat": 42.096174,
    "lng": -84.112293,
    "locName": "Iron Creek Nature Preserve",
    "latestObsDt": "2025-11-03 10:13",
    "numSpeciesAllTime": 22
  },
  {
    "locId": "L4402888",
    "countryCode": "US",
    "subnational1Code": "US-MI",
    "subnational2Code": "US-MI-161",
    "lat": 42.0996296,
    "lng": -84.0918559,
    "locName": "Iron Mill Pond",
    "latestObsDt": "2025-12-21 15:36",
    "numSpeciesAllTime": 112
  },
  {
    "locId": "L961970",
    "countryCode": "US",
    "subnational1Code": "US-MI",
    "subnational2Code": "US-MI-161",
    "lat": 42.2905841,
    "lng": -83.7287848,
    "locName": "Island Park",
    "latestObsDt": "2025-12-25 10:45",
    "numSpeciesAllTime": 128
  },
  {
    "locId": "L7971685",
    "countryCode": "US",
    "subnational1Code": "US-MI",
    "subnational2Code": "US-MI-161",
    "lat": 42.3045843,
    "lng": -83.6027019,
    "locName": "Jack R. Smiley Nature Preserve",
    "latestObsDt": "2025-10-14 12:44",
    "numSpeciesAllTime": 135
  },
  {
    "locId": "L36626434",
    "countryCode": "US",
    "subnational1Code": "US-MI",
    "subnational2Code": "US-MI-161",
    "lat": 42.2610557,
    "lng": -83.6096277,
    "locName": "Janice Anschuetz Highland Preserve",
    "latestObsDt": "2025-12-23 12:25",
    "numSpeciesAllTime": 117
  },
  {
    "locId": "L23601600",
    "countryCode": "US",
    "subnational1Code": "US-MI",
    "subnational2Code": "US-MI-161",
    "lat": 42.1749984,
    "lng": -83.8205205,
    "locName": "Joan Rodman Memorial Plant Preserve",
    "latestObsDt": "2025-10-26 15:08",
    "numSpeciesAllTime": 87
  },
  {
    "locId": "L27837141",
    "countryCode": "US",
    "subnational1Code": "US-MI",
    "subnational2Code": "US-MI-161",
    "lat": 42.1798787,
    "lng": -83.9961328,
    "locName": "Juniper Hill",
    "latestObsDt": "2025-12-21 09:14",
    "numSpeciesAllTime": 46
  },
  {
    "locId": "L11464536",
    "countryCode": "US",
    "subnational1Code": "US-MI",
    "subnational2Code": "US-MI-161",
    "lat": 42.3192008,
    "lng": -83.6958432,
    "locName": "Kilburn Park",
    "latestObsDt": "2025-12-20 09:23",
    "numSpeciesAllTime": 103
  },
  {
    "locId": "L11815492",
    "countryCode": "US",
    "subnational1Code": "US-MI",
    "subnational2Code": "US-MI-161",
    "lat": 42.253,
    "lng": -83.796,
    "locName": "Knox Presbyterian Church",
    "latestObsDt": "2025-07-07 08:00",
    "numSpeciesAllTime": 105
  },
  {
    "locId": "L8265970",
    "countryCode": "US",
    "subnational1Code": "US-MI",
    "subnational2Code": "US-MI-161",
    "lat": 42.2582658,
    "lng": -84.1133787,
    "locName": "Koenn Preserve",
    "latestObsDt": "2025-12-20 15:58",
    "numSpeciesAllTime": 109
  },
  {
    "locId": "L1185473",
    "countryCode": "US",
    "subnational1Code": "US-MI",
    "subnational2Code": "US-MI-161",
    "lat": 42.3162417,
    "lng": -83.5996056,
    "locName": "Kosch-Headwaters Preserve and Springhill Nature Preserve",
    "latestObsDt": "2025-11-14 12:59",
    "numSpeciesAllTime": 171
  },
  {
    "locId": "L2082248",
    "countryCode": "US",
    "subnational1Code": "US-MI",
    "subnational2Code": "US-MI-161",
    "lat": 42.3001747,
    "lng": -83.750807,
    "locName": "Kuebler Langford Nature Area",
    "latestObsDt": "2025-12-20 15:29",
    "numSpeciesAllTime": 111
  },
  {
    "locId": "L21614119",
    "countryCode": "US",
    "subnational1Code": "US-MI",
    "subnational2Code": "US-MI-161",
    "lat": 42.2034476,
    "lng": -83.5640112,
    "locName": "Lakeside Park",
    "latestObsDt": "2025-11-30 10:12",
    "numSpeciesAllTime": 94
  },
  {
    "locId": "L2082250",
    "countryCode": "US",
    "subnational1Code": "US-MI",
    "subnational2Code": "US-MI-161",
    "lat": 42.2770706,
    "lng": -83.7939692,
    "locName": "Lakewood Nature Area",
    "latestObsDt": "2025-12-20 10:44",
    "numSpeciesAllTime": 117
  },
  {
    "locId": "L899963",
    "countryCode": "US",
    "subnational1Code": "US-MI",
    "subnational2Code": "US-MI-161",
    "lat": 42.2866593,
    "lng": -83.6015797,
    "locName": "LeFurge Woods Nature Preserve",
    "latestObsDt": "2025-12-27 12:42",
    "numSpeciesAllTime": 201
  },
  {
    "locId": "L30555826",
    "countryCode": "US",
    "subnational1Code": "US-MI",
    "subnational2Code": "US-MI-161",
    "lat": 42.244559,
    "lng": -84.053289,
    "locName": "Lehman Rd. fluddle",
    "latestObsDt": "2025-05-22 12:21",
    "numSpeciesAllTime": 72
  },
  {
    "locId": "L1173642",
    "countryCode": "US",
    "subnational1Code": "US-MI",
    "subnational2Code": "US-MI-161",
    "lat": 42.155339,
    "lng": -84.0557957,
    "locName": "Leonard Preserve",
    "latestObsDt": "2025-12-23 15:08",
    "numSpeciesAllTime": 166
  },
  {
    "locId": "L7909307",
    "countryCode": "US",
    "subnational1Code": "US-MI",
    "subnational2Code": "US-MI-161",
    "lat": 42.1536687,
    "lng": -83.7734342,
    "locName": "Leslee Niethammer Saline River Preserve",
    "latestObsDt": "2025-09-22 14:43",
    "numSpeciesAllTime": 138
  },
  {
    "locId": "L9145831",
    "countryCode": "US",
    "subnational1Code": "US-MI",
    "subnational2Code": "US-MI-161",
    "lat": 42.303574,
    "lng": -83.725147,
    "locName": "Leslie Park Golf Course",
    "latestObsDt": "2025-12-20 14:58",
    "numSpeciesAllTime": 78
  },
  {
    "locId": "L2082254",
    "countryCode": "US",
    "subnational1Code": "US-MI",
    "subnational2Code": "US-MI-161",
    "lat": 42.303079,
    "lng": -83.7200153,
    "locName": "Leslie Woods Nature Area",
    "latestObsDt": "2025-12-02 13:00",
    "numSpeciesAllTime": 103
  },
  {
    "locId": "L15958664",
    "countryCode": "US",
    "subnational1Code": "US-MI",
    "subnational2Code": "US-MI-161",
    "lat": 42.2684141,
    "lng": -83.8844037,
    "locName": "Liberty Pond Nature Area",
    "latestObsDt": "2025-12-20 10:16",
    "numSpeciesAllTime": 120
  },
  {
    "locId": "L1155167",
    "countryCode": "US",
    "subnational1Code": "US-MI",
    "subnational2Code": "US-MI-161",
    "lat": 42.2264518,
    "lng": -83.6985254,
    "locName": "Lillie Park",
    "latestObsDt": "2025-12-20 12:26",
    "numSpeciesAllTime": 175
  },
  {
    "locId": "L2832709",
    "countryCode": "US",
    "subnational1Code": "US-MI",
    "subnational2Code": "US-MI-161",
    "lat": 42.301783,
    "lng": -83.9576,
    "locName": "Lima Center Rd. marsh",
    "latestObsDt": "2025-07-09 14:02",
    "numSpeciesAllTime": 83
  },
  {
    "locId": "L30026247",
    "countryCode": "US",
    "subnational1Code": "US-MI",
    "subnational2Code": "US-MI-161",
    "lat": 42.2669187,
    "lng": -83.9558542,
    "locName": "Lima Center Woods",
    "latestObsDt": "2025-12-08 16:52",
    "numSpeciesAllTime": 62
  },
  {
    "locId": "L2161919",
    "countryCode": "US",
    "subnational1Code": "US-MI",
    "subnational2Code": "US-MI-161",
    "lat": 42.3686148,
    "lng": -84.0296001,
    "locName": "Lindley Rd.",
    "latestObsDt": "2025-06-28 20:15",
    "numSpeciesAllTime": 145
  },
  {
    "locId": "L1036396",
    "countryCode": "US",
    "subnational1Code": "US-MI",
    "subnational2Code": "US-MI-161",
    "lat": 42.2810158,
    "lng": -83.8147616,
    "locName": "Little Lake",
    "latestObsDt": "2025-12-29 14:04",
    "numSpeciesAllTime": 114
  },
  {
    "locId": "L15332743",
    "countryCode": "US",
    "subnational1Code": "US-MI",
    "subnational2Code": "US-MI-161",
    "lat": 42.2217029,
    "lng": -83.6987934,
    "locName": "Lloyd and Mabel Johnson Preserve",
    "latestObsDt": "2025-11-22 10:28",
    "numSpeciesAllTime": 57
  },
  {
    "locId": "L20311322",
    "countryCode": "US",
    "subnational1Code": "US-MI",
    "subnational2Code": "US-MI-161",
    "lat": 42.2198762,
    "lng": -83.5836702,
    "locName": "Loonfeather Point Park",
    "latestObsDt": "2025-11-24 14:57",
    "numSpeciesAllTime": 124
  },
  {
    "locId": "L2325433",
    "countryCode": "US",
    "subnational1Code": "US-MI",
    "subnational2Code": "US-MI-161",
    "lat": 42.2997224,
    "lng": -83.7746572,
    "locName": "M-14 pond",
    "latestObsDt": "2025-12-20 15:54",
    "numSpeciesAllTime": 142
  },
  {
    "locId": "L3576213",
    "countryCode": "US",
    "subnational1Code": "US-MI",
    "subnational2Code": "US-MI-161",
    "lat": 42.2470965,
    "lng": -84.035368,
    "locName": "M-52 and Lehman Rd. fluddle",
    "latestObsDt": "2025-12-24 12:09",
    "numSpeciesAllTime": 152
  },
  {
    "locId": "L12115275",
    "countryCode": "US",
    "subnational1Code": "US-MI",
    "subnational2Code": "US-MI-161",
    "lat": 42.2876911,
    "lng": -83.7603664,
    "locName": "Mack School",
    "latestObsDt": "2025-08-23 20:11",
    "numSpeciesAllTime": 37
  },
  {
    "locId": "L5840121",
    "countryCode": "US",
    "subnational1Code": "US-MI",
    "subnational2Code": "US-MI-161",
    "lat": 42.1301394,
    "lng": -83.7754498,
    "locName": "Maple Rd. troll bridge",
    "latestObsDt": "2025-08-28 04:47",
    "numSpeciesAllTime": 143
  },
  {
    "locId": "L901120",
    "countryCode": "US",
    "subnational1Code": "US-MI",
    "subnational2Code": "US-MI-161",
    "lat": 42.2002727,
    "lng": -83.7209755,
    "locName": "Marsh View Meadows Park",
    "latestObsDt": "2025-09-17 13:58",
    "numSpeciesAllTime": 101
  },
  {
    "locId": "L637105",
    "countryCode": "US",
    "subnational1Code": "US-MI",
    "subnational2Code": "US-MI-161",
    "lat": 42.3146392,
    "lng": -83.6676693,
    "locName": "Marshall Nature Area",
    "latestObsDt": "2025-12-20 08:17",
    "numSpeciesAllTime": 139
  },
  {
    "locId": "L818736",
    "countryCode": "US",
    "subnational1Code": "US-MI",
    "subnational2Code": "US-MI-161",
    "lat": 42.2411953,
    "lng": -83.7111855,
    "locName": "Mary Beth Doyle Park",
    "latestObsDt": "2025-12-27 11:23",
    "numSpeciesAllTime": 198
  },
  {
    "locId": "L5840012",
    "countryCode": "US",
    "subnational1Code": "US-MI",
    "subnational2Code": "US-MI-161",
    "lat": 42.1655004,
    "lng": -83.7182437,
    "locName": "Mary McCann Park",
    "latestObsDt": "2025-12-30 16:18",
    "numSpeciesAllTime": 108
  },
  {
    "locId": "L492256",
    "countryCode": "US",
    "subnational1Code": "US-MI",
    "subnational2Code": "US-MI-161",
    "lat": 42.3007381,
    "lng": -83.6628628,
    "locName": "Matthaei Botanical Gardens",
    "latestObsDt": "2025-12-25 14:09",
    "numSpeciesAllTime": 207
  },
  {
    "locId": "L7640129",
    "countryCode": "US",
    "subnational1Code": "US-MI",
    "subnational2Code": "US-MI-161",
    "lat": 42.2913918,
    "lng": -83.6657669,
    "locName": "Matthaei Botanical Gardens Trail",
    "latestObsDt": "2025-12-20 13:03",
    "numSpeciesAllTime": 131
  },
  {
    "locId": "L1270473",
    "countryCode": "US",
    "subnational1Code": "US-MI",
    "subnational2Code": "US-MI-161",
    "lat": 42.1104171,
    "lng": -83.6513186,
    "locName": "McCrone Rd Sod Farm",
    "latestObsDt": "2024-11-03 11:35",
    "numSpeciesAllTime": 58
  },
  {
    "locId": "L894214",
    "countryCode": "US",
    "subnational1Code": "US-MI",
    "subnational2Code": "US-MI-161",
    "lat": 42.2848655,
    "lng": -83.6047554,
    "locName": "Meyer Nature Preserve",
    "latestObsDt": "2025-12-20 12:49",
    "numSpeciesAllTime": 145
  },
  {
    "locId": "L2231575",
    "countryCode": "US",
    "subnational1Code": "US-MI",
    "subnational2Code": "US-MI-161",
    "lat": 42.1779827,
    "lng": -84.061941,
    "locName": "Meyers Rd.",
    "latestObsDt": "2025-08-25 11:11",
    "numSpeciesAllTime": 78
  },
  {
    "locId": "L4226573",
    "countryCode": "US",
    "subnational1Code": "US-MI",
    "subnational2Code": "US-MI-161",
    "lat": 42.0844721,
    "lng": -83.684471,
    "locName": "Milan American Legion/Ford Lake Overlook",
    "latestObsDt": "2025-10-11 11:26",
    "numSpeciesAllTime": 65
  },
  {
    "locId": "L8653368",
    "countryCode": "US",
    "subnational1Code": "US-MI",
    "subnational2Code": "US-MI-161",
    "lat": 42.0852257,
    "lng": -83.6943118,
    "locName": "Milan Nature Park",
    "latestObsDt": "2025-10-03 11:08",
    "numSpeciesAllTime": 65
  },
  {
    "locId": "L16318428",
    "countryCode": "US",
    "subnational1Code": "US-MI",
    "subnational2Code": "US-MI-161",
    "lat": 42.3379973,
    "lng": -83.890372,
    "locName": "Mill Creek Park",
    "latestObsDt": "2025-12-22 11:24",
    "numSpeciesAllTime": 95
  },
  {
    "locId": "L3153510",
    "countryCode": "US",
    "subnational1Code": "US-MI",
    "subnational2Code": "US-MI-161",
    "lat": 42.1707273,
    "lng": -83.7947202,
    "locName": "Mill Pond Park",
    "latestObsDt": "2025-10-09 14:05",
    "numSpeciesAllTime": 123
  },
  {
    "locId": "L324472",
    "countryCode": "US",
    "subnational1Code": "US-MI",
    "subnational2Code": "US-MI-161",
    "lat": 42.2879872,
    "lng": -83.7683267,
    "locName": "Miller Natural Area",
    "latestObsDt": "2025-12-30 11:45",
    "numSpeciesAllTime": 114
  },
  {
    "locId": "L4491092",
    "countryCode": "US",
    "subnational1Code": "US-MI",
    "subnational2Code": "US-MI-161",
    "lat": 42.3340374,
    "lng": -83.9016223,
    "locName": "Miller-Smith Preserve",
    "latestObsDt": "2025-11-13 10:55",
    "numSpeciesAllTime": 92
  },
  {
    "locId": "L12905246",
    "countryCode": "US",
    "subnational1Code": "US-MI",
    "subnational2Code": "US-MI-161",
    "lat": 42.180696,
    "lng": -83.6138583,
    "locName": "Millpointe Park",
    "latestObsDt": "2024-05-15 00:15",
    "numSpeciesAllTime": 26
  },
  {
    "locId": "L13988264",
    "countryCode": "US",
    "subnational1Code": "US-MI",
    "subnational2Code": "US-MI-161",
    "lat": 42.286491,
    "lng": -83.721352,
    "locName": "Mitchell Field",
    "latestObsDt": "2025-05-29 07:17",
    "numSpeciesAllTime": 50
  },
  {
    "locId": "L13408863",
    "countryCode": "US",
    "subnational1Code": "US-MI",
    "subnational2Code": "US-MI-161",
    "lat": 42.2494442,
    "lng": -83.7154982,
    "locName": "Molin Nature Area",
    "latestObsDt": "2025-12-20 13:42",
    "numSpeciesAllTime": 85
  },
  {
    "locId": "L1038865",
    "countryCode": "US",
    "subnational1Code": "US-MI",
    "subnational2Code": "US-MI-161",
    "lat": 42.2358615,
    "lng": -83.6735648,
    "locName": "Montibeller Park",
    "latestObsDt": "2025-11-19 12:24",
    "numSpeciesAllTime": 93
  },
  {
    "locId": "L16183167",
    "countryCode": "US",
    "subnational1Code": "US-MI",
    "subnational2Code": "US-MI-161",
    "lat": 42.102706,
    "lng": -83.734827,
    "locName": "Mooreville Preserve",
    "latestObsDt": "2025-10-01 10:50",
    "numSpeciesAllTime": 92
  },
  {
    "locId": "L1044782",
    "countryCode": "US",
    "subnational1Code": "US-MI",
    "subnational2Code": "US-MI-161",
    "lat": 42.2175373,
    "lng": -83.7245536,
    "locName": "Morgan Woods Nature Preserve",
    "latestObsDt": "2025-12-22 14:25",
    "numSpeciesAllTime": 89
  },
  {
    "locId": "L771459",
    "countryCode": "US",
    "subnational1Code": "US-MI",
    "subnational2Code": "US-MI-161",
    "lat": 42.1860966,
    "lng": -84.1105589,
    "locName": "Nan Weston Nature Preserve at Sharon Hollow",
    "latestObsDt": "2025-12-24 10:00",
    "numSpeciesAllTime": 177
  },
  {
    "locId": "L18202885",
    "countryCode": "US",
    "subnational1Code": "US-MI",
    "subnational2Code": "US-MI-161",
    "lat": 42.2249058,
    "lng": -83.5866099,
    "locName": "Nancy Park",
    "latestObsDt": "2025-04-18 11:30",
    "numSpeciesAllTime": 34
  },
  {
    "locId": "L2082256",
    "countryCode": "US",
    "subnational1Code": "US-MI",
    "subnational2Code": "US-MI-161",
    "lat": 42.2822462,
    "lng": -83.6929679,
    "locName": "Narrow Gauge Way",
    "latestObsDt": "2025-12-27 16:22",
    "numSpeciesAllTime": 55
  },
  {
    "locId": "L320822",
    "countryCode": "US",
    "subnational1Code": "US-MI",
    "subnational2Code": "US-MI-161",
    "lat": 42.2813095,
    "lng": -83.7221074,
    "locName": "Nichols Arboretum",
    "latestObsDt": "2025-12-30 15:01",
    "numSpeciesAllTime": 220
  },
  {
    "locId": "L1084604",
    "countryCode": "US",
    "subnational1Code": "US-MI",
    "subnational2Code": "US-MI-161",
    "lat": 42.2282671,
    "lng": -83.6102566,
    "locName": "North Bay Park/Ford Lake Boardwalk",
    "latestObsDt": "2025-12-27 12:37",
    "numSpeciesAllTime": 212
  },
  {
    "locId": "L11791078",
    "countryCode": "US",
    "subnational1Code": "US-MI",
    "subnational2Code": "US-MI-161",
    "lat": 42.2075962,
    "lng": -83.5544943,
    "locName": "North Hydro Park",
    "latestObsDt": "2025-12-27 15:59",
    "numSpeciesAllTime": 154
  },
  {
    "locId": "L5862823",
    "countryCode": "US",
    "subnational1Code": "US-MI",
    "subnational2Code": "US-MI-161",
    "lat": 42.3961743,
    "lng": -83.9968617,
    "locName": "North Lake",
    "latestObsDt": "2025-11-14 12:54",
    "numSpeciesAllTime": 75
  },
  {
    "locId": "L6465662",
    "countryCode": "US",
    "subnational1Code": "US-MI",
    "subnational2Code": "US-MI-161",
    "lat": 42.3239287,
    "lng": -83.6070353,
    "locName": "North Prospect Park",
    "latestObsDt": "2025-12-27 15:27",
    "numSpeciesAllTime": 33
  },
  {
    "locId": "L18327816",
    "countryCode": "US",
    "subnational1Code": "US-MI",
    "subnational2Code": "US-MI-161",
    "lat": 42.4250083,
    "lng": -83.7645917,
    "locName": "Northfield Twp. Community Park",
    "latestObsDt": "2025-12-01 11:56",
    "numSpeciesAllTime": 88
  },
  {
    "locId": "L2137359",
    "countryCode": "US",
    "subnational1Code": "US-MI",
    "subnational2Code": "US-MI-161",
    "lat": 42.3477213,
    "lng": -83.7438118,
    "locName": "Northfield Woods Preserve",
    "latestObsDt": "2025-12-09 13:17",
    "numSpeciesAllTime": 106
  },
  {
    "locId": "L1206411",
    "countryCode": "US",
    "subnational1Code": "US-MI",
    "subnational2Code": "US-MI-161",
    "lat": 42.2788329,
    "lng": -84.1230869,
    "locName": "Notten Rd. railroad ponds & bog",
    "latestObsDt": "2025-08-01 13:03",
    "numSpeciesAllTime": 82
  },
  {
    "locId": "L5872560",
    "countryCode": "US",
    "subnational1Code": "US-MI",
    "subnational2Code": "US-MI-161",
    "lat": 42.2871861,
    "lng": -83.7026863,
    "locName": "Oakridge Nature Area",
    "latestObsDt": "2025-12-20 21:10",
    "numSpeciesAllTime": 67
  },
  {
    "locId": "L2082263",
    "countryCode": "US",
    "subnational1Code": "US-MI",
    "subnational2Code": "US-MI-161",
    "lat": 42.3186455,
    "lng": -83.6990404,
    "locName": "Oakwoods Nature Area",
    "latestObsDt": "2025-12-29 13:07",
    "numSpeciesAllTime": 174
  },
  {
    "locId": "L2082265",
    "countryCode": "US",
    "subnational1Code": "US-MI",
    "subnational2Code": "US-MI-161",
    "lat": 42.3194785,
    "lng": -83.7308514,
    "locName": "Olson Park",
    "latestObsDt": "2025-12-23 08:12",
    "numSpeciesAllTime": 148
  },
  {
    "locId": "L15609026",
    "countryCode": "US",
    "subnational1Code": "US-MI",
    "subnational2Code": "US-MI-161",
    "lat": 42.329926,
    "lng": -83.8110272,
    "locName": "Osborne Mill Preserve",
    "latestObsDt": "2025-12-20 08:37",
    "numSpeciesAllTime": 103
  },
  {
    "locId": "L2862482",
    "countryCode": "US",
    "subnational1Code": "US-MI",
    "subnational2Code": "US-MI-161",
    "lat": 42.3795273,
    "lng": -84.0614256,
    "locName": "Park Lyndon County Park",
    "latestObsDt": "2025-10-02 10:54",
    "numSpeciesAllTime": 155
  },
  {
    "locId": "L903193",
    "countryCode": "US",
    "subnational1Code": "US-MI",
    "subnational2Code": "US-MI-161",
    "lat": 42.2725774,
    "lng": -83.6631846,
    "locName": "Parker Mill Park",
    "latestObsDt": "2025-12-20 09:47",
    "numSpeciesAllTime": 141
  },
  {
    "locId": "L11757860",
    "countryCode": "US",
    "subnational1Code": "US-MI",
    "subnational2Code": "US-MI-161",
    "lat": 42.2566989,
    "lng": -83.6239918,
    "locName": "Peninsular Park",
    "latestObsDt": "2025-09-21 14:14",
    "numSpeciesAllTime": 93
  },
  {
    "locId": "L5782652",
    "countryCode": "US",
    "subnational1Code": "US-MI",
    "subnational2Code": "US-MI-161",
    "lat": 42.301838,
    "lng": -84.014917,
    "locName": "Pierce Lake",
    "latestObsDt": "2025-12-23 15:44",
    "numSpeciesAllTime": 172
  },
  {
    "locId": "L860161",
    "countryCode": "US",
    "subnational1Code": "US-MI",
    "subnational2Code": "US-MI-161",
    "lat": 42.4102639,
    "lng": -84.0157471,
    "locName": "Pinckney RA (Washtenaw Co.)",
    "latestObsDt": "2025-11-14 11:57",
    "numSpeciesAllTime": 176
  },
  {
    "locId": "L14353009",
    "countryCode": "US",
    "subnational1Code": "US-MI",
    "subnational2Code": "US-MI-161",
    "lat": 42.4180934,
    "lng": -83.9822873,
    "locName": "Pinckney RA--Crooked Lake",
    "latestObsDt": "2025-11-14 15:29",
    "numSpeciesAllTime": 124
  },
  {
    "locId": "L1131706",
    "countryCode": "US",
    "subnational1Code": "US-MI",
    "subnational2Code": "US-MI-161",
    "lat": 42.3912939,
    "lng": -84.054594,
    "locName": "Pinckney RA--Embury Rd.",
    "latestObsDt": "2025-12-27 12:58",
    "numSpeciesAllTime": 169
  },
  {
    "locId": "L1217368",
    "countryCode": "US",
    "subnational1Code": "US-MI",
    "subnational2Code": "US-MI-161",
    "lat": 42.4058404,
    "lng": -83.9909935,
    "locName": "Pinckney RA--Hankerd Rd.",
    "latestObsDt": "2025-11-14 14:13",
    "numSpeciesAllTime": 124
  },
  {
    "locId": "L25492429",
    "countryCode": "US",
    "subnational1Code": "US-MI",
    "subnational2Code": "US-MI-161",
    "lat": 42.412903,
    "lng": -84.069818,
    "locName": "Pinckney RA--Joslin Lake",
    "latestObsDt": "2025-11-27 09:16",
    "numSpeciesAllTime": 106
  },
  {
    "locId": "L5835005",
    "countryCode": "US",
    "subnational1Code": "US-MI",
    "subnational2Code": "US-MI-161",
    "lat": 42.409218,
    "lng": -83.98512,
    "locName": "Pinckney RA--Pickerel Lake",
    "latestObsDt": "2025-11-14 13:19",
    "numSpeciesAllTime": 122
  },
  {
    "locId": "L1522623",
    "countryCode": "US",
    "subnational1Code": "US-MI",
    "subnational2Code": "US-MI-161",
    "lat": 42.4138186,
    "lng": -83.9628457,
    "locName": "Pinckney RA--Silver Lake",
    "latestObsDt": "2025-12-04 12:00",
    "numSpeciesAllTime": 176
  },
  {
    "locId": "L19027939",
    "countryCode": "US",
    "subnational1Code": "US-MI",
    "subnational2Code": "US-MI-161",
    "lat": 42.4046944,
    "lng": -84.0583513,
    "locName": "Pinckney RA--South Lake",
    "latestObsDt": "2025-11-14 10:38",
    "numSpeciesAllTime": 113
  },
  {
    "locId": "L2104264",
    "countryCode": "US",
    "subnational1Code": "US-MI",
    "subnational2Code": "US-MI-161",
    "lat": 42.2610174,
    "lng": -83.7592292,
    "locName": "Pioneer Woods",
    "latestObsDt": "2025-12-16 12:31",
    "numSpeciesAllTime": 74
  },
  {
    "locId": "L1148523",
    "countryCode": "US",
    "subnational1Code": "US-MI",
    "subnational2Code": "US-MI-161",
    "lat": 42.2117127,
    "lng": -83.7100804,
    "locName": "Pittsfield Preserve",
    "latestObsDt": "2025-11-05 11:57",
    "numSpeciesAllTime": 176
  },
  {
    "locId": "L19191216",
    "countryCode": "US",
    "subnational1Code": "US-MI",
    "subnational2Code": "US-MI-161",
    "lat": 42.2183474,
    "lng": -83.6995551,
    "locName": "Platt Rd. fluddles",
    "latestObsDt": "2025-12-29 15:37",
    "numSpeciesAllTime": 93
  },
  {
    "locId": "L2606090",
    "countryCode": "US",
    "subnational1Code": "US-MI",
    "subnational2Code": "US-MI-161",
    "lat": 42.2021395,
    "lng": -83.9536199,
    "locName": "Pleasant Lake",
    "latestObsDt": "2025-12-29 11:04",
    "numSpeciesAllTime": 134
  },
  {
    "locId": "L477087",
    "countryCode": "US",
    "subnational1Code": "US-MI",
    "subnational2Code": "US-MI-161",
    "lat": 42.4185144,
    "lng": -83.9254618,
    "locName": "Portage Lake (Washtenaw Co.)",
    "latestObsDt": "2025-12-29 15:28",
    "numSpeciesAllTime": 161
  },
  {
    "locId": "L15904734",
    "countryCode": "US",
    "subnational1Code": "US-MI",
    "subnational2Code": "US-MI-161",
    "lat": 42.197385,
    "lng": -83.700454,
    "locName": "Prairie Park",
    "latestObsDt": "2025-05-06 15:04",
    "numSpeciesAllTime": 38
  },
  {
    "locId": "L3499156",
    "countryCode": "US",
    "subnational1Code": "US-MI",
    "subnational2Code": "US-MI-161",
    "lat": 42.2466655,
    "lng": -83.6014187,
    "locName": "Prospect Park",
    "latestObsDt": "2025-11-13 08:30",
    "numSpeciesAllTime": 51
  },
  {
    "locId": "L20071289",
    "countryCode": "US",
    "subnational1Code": "US-MI",
    "subnational2Code": "US-MI-161",
    "lat": 42.2602123,
    "lng": -83.6280584,
    "locName": "Ranzini Oaks (roadside only)",
    "latestObsDt": "2025-02-21 12:03",
    "numSpeciesAllTime": 67
  },
  {
    "locId": "L16838728",
    "countryCode": "US",
    "subnational1Code": "US-MI",
    "subnational2Code": "US-MI-161",
    "lat": 42.2403229,
    "lng": -83.6287801,
    "locName": "Recreation Park",
    "latestObsDt": "2025-12-05 13:39",
    "numSpeciesAllTime": 48
  },
  {
    "locId": "L687178",
    "countryCode": "US",
    "subnational1Code": "US-MI",
    "subnational2Code": "US-MI-161",
    "lat": 42.2531084,
    "lng": -83.6952209,
    "locName": "Redbud Nature Area",
    "latestObsDt": "2025-12-29 10:14",
    "numSpeciesAllTime": 130
  },
  {
    "locId": "L9397187",
    "countryCode": "US",
    "subnational1Code": "US-MI",
    "subnational2Code": "US-MI-161",
    "lat": 42.2027329,
    "lng": -83.9658395,
    "locName": "Reno Rd. & Hieber Rd.",
    "latestObsDt": "2025-09-19 07:49",
    "numSpeciesAllTime": 93
  },
  {
    "locId": "L4638933",
    "countryCode": "US",
    "subnational1Code": "US-MI",
    "subnational2Code": "US-MI-161",
    "lat": 42.0914076,
    "lng": -83.9757693,
    "locName": "Riverbend Preserve",
    "latestObsDt": "2025-12-21 07:21",
    "numSpeciesAllTime": 120
  },
  {
    "locId": "L2082266",
    "countryCode": "US",
    "subnational1Code": "US-MI",
    "subnational2Code": "US-MI-161",
    "lat": 42.2869847,
    "lng": -83.736527,
    "locName": "Riverside Park (Ann Arbor)",
    "latestObsDt": "2025-12-20 13:57",
    "numSpeciesAllTime": 108
  },
  {
    "locId": "L7270421",
    "countryCode": "US",
    "subnational1Code": "US-MI",
    "subnational2Code": "US-MI-161",
    "lat": 42.2437103,
    "lng": -83.6113295,
    "locName": "Riverside Park (Ypsilanti)",
    "latestObsDt": "2025-08-01 12:45",
    "numSpeciesAllTime": 124
  },
  {
    "locId": "L5948371",
    "countryCode": "US",
    "subnational1Code": "US-MI",
    "subnational2Code": "US-MI-161",
    "lat": 42.3374014,
    "lng": -84.0213874,
    "locName": "Robin Hills Farm",
    "latestObsDt": "2024-07-16 09:39",
    "numSpeciesAllTime": 54
  },
  {
    "locId": "L1069205",
    "countryCode": "US",
    "subnational1Code": "US-MI",
    "subnational2Code": "US-MI-161",
    "lat": 42.1786876,
    "lng": -83.6464258,
    "locName": "Rolling Hills Park",
    "latestObsDt": "2025-12-25 10:18",
    "numSpeciesAllTime": 160
  },
  {
    "locId": "L2082268",
    "countryCode": "US",
    "subnational1Code": "US-MI",
    "subnational2Code": "US-MI-161",
    "lat": 42.2784519,
    "lng": -83.6974633,
    "locName": "Ruthven Nature Area",
    "latestObsDt": "2025-12-20 11:54",
    "numSpeciesAllTime": 121
  },
  {
    "locId": "L1651157",
    "countryCode": "US",
    "subnational1Code": "US-MI",
    "subnational2Code": "US-MI-161",
    "lat": 42.2334765,
    "lng": -83.8941153,
    "locName": "S. Parker Rd. marsh",
    "latestObsDt": "2025-11-20 12:24",
    "numSpeciesAllTime": 115
  },
  {
    "locId": "L908257",
    "countryCode": "US",
    "subnational1Code": "US-MI",
    "subnational2Code": "US-MI-161",
    "lat": 42.2749273,
    "lng": -83.8065863,
    "locName": "Saginaw Forest",
    "latestObsDt": "2025-12-20 10:23",
    "numSpeciesAllTime": 153
  },
  {
    "locId": "L622704",
    "countryCode": "US",
    "subnational1Code": "US-MI",
    "subnational2Code": "US-MI-161",
    "lat": 42.4012771,
    "lng": -83.5578918,
    "locName": "Salem Landfill (restricted access)",
    "latestObsDt": "2025-12-02 09:48",
    "numSpeciesAllTime": 71
  },
  {
    "locId": "L24319719",
    "countryCode": "US",
    "subnational1Code": "US-MI",
    "subnational2Code": "US-MI-161",
    "lat": 42.3861907,
    "lng": -83.5771608,
    "locName": "Salem Twp Farm Preserve",
    "latestObsDt": "2025-07-19 13:37",
    "numSpeciesAllTime": 80
  },
  {
    "locId": "L13186590",
    "countryCode": "US",
    "subnational1Code": "US-MI",
    "subnational2Code": "US-MI-161",
    "lat": 42.15549,
    "lng": -83.776545,
    "locName": "Saline Fisheries Research Station",
    "latestObsDt": "2025-05-19 09:59",
    "numSpeciesAllTime": 115
  },
  {
    "locId": "L20626842",
    "countryCode": "US",
    "subnational1Code": "US-MI",
    "subnational2Code": "US-MI-161",
    "lat": 42.1560527,
    "lng": -83.7802651,
    "locName": "Salt Springs Park",
    "latestObsDt": "2025-09-13 07:41",
    "numSpeciesAllTime": 100
  },
  {
    "locId": "L28869950",
    "countryCode": "US",
    "subnational1Code": "US-MI",
    "subnational2Code": "US-MI-161",
    "lat": 42.150537,
    "lng": -83.696111,
    "locName": "Sandra Richardson Park",
    "latestObsDt": "2025-12-13 08:51",
    "numSpeciesAllTime": 51
  },
  {
    "locId": "L5839349",
    "countryCode": "US",
    "subnational1Code": "US-MI",
    "subnational2Code": "US-MI-161",
    "lat": 42.0946936,
    "lng": -83.6609745,
    "locName": "Sanford Road Park",
    "latestObsDt": "2025-10-12 11:16",
    "numSpeciesAllTime": 88
  },
  {
    "locId": "L683158",
    "countryCode": "US",
    "subnational1Code": "US-MI",
    "subnational2Code": "US-MI-161",
    "lat": 42.2326483,
    "lng": -83.6923027,
    "locName": "Scarlett-Mitchell Nature Area",
    "latestObsDt": "2025-12-20 10:54",
    "numSpeciesAllTime": 152
  },
  {
    "locId": "L16577140",
    "countryCode": "US",
    "subnational1Code": "US-MI",
    "subnational2Code": "US-MI-161",
    "lat": 42.2515856,
    "lng": -83.6992416,
    "locName": "Scheffler Park",
    "latestObsDt": "2025-12-17 15:03",
    "numSpeciesAllTime": 59
  },
  {
    "locId": "L1173660",
    "countryCode": "US",
    "subnational1Code": "US-MI",
    "subnational2Code": "US-MI-161",
    "lat": 42.1529131,
    "lng": -84.0138352,
    "locName": "Schwab Rd Pond",
    "latestObsDt": "2025-12-21 07:30",
    "numSpeciesAllTime": 114
  },
  {
    "locId": "L758491",
    "countryCode": "US",
    "subnational1Code": "US-MI",
    "subnational2Code": "US-MI-161",
    "lat": 42.2533109,
    "lng": -83.8965432,
    "locName": "Scio Church Rd. and Parker Rd. ponds",
    "latestObsDt": "2025-11-20 12:17",
    "numSpeciesAllTime": 166
  },
  {
    "locId": "L1153630",
    "countryCode": "US",
    "subnational1Code": "US-MI",
    "subnational2Code": "US-MI-161",
    "lat": 42.2559414,
    "lng": -83.8080159,
    "locName": "Scio Woods Preserve",
    "latestObsDt": "2025-12-20 09:38",
    "numSpeciesAllTime": 144
  },
  {
    "locId": "L6326511",
    "countryCode": "US",
    "subnational1Code": "US-MI",
    "subnational2Code": "US-MI-161",
    "lat": 42.1577131,
    "lng": -83.6560151,
    "locName": "Searles Nature Preserve",
    "latestObsDt": "2025-12-14 13:16",
    "numSpeciesAllTime": 89
  },
  {
    "locId": "L16939153",
    "countryCode": "US",
    "subnational1Code": "US-MI",
    "subnational2Code": "US-MI-161",
    "lat": 42.3242947,
    "lng": -83.589753,
    "locName": "Secrest Nature Preserve",
    "latestObsDt": "2025-10-29 14:06",
    "numSpeciesAllTime": 81
  },
  {
    "locId": "L930569",
    "countryCode": "US",
    "subnational1Code": "US-MI",
    "subnational2Code": "US-MI-161",
    "lat": 42.2713707,
    "lng": -83.649559,
    "locName": "Shanghai Prairie",
    "latestObsDt": "2025-12-07 09:27",
    "numSpeciesAllTime": 94
  },
  {
    "locId": "L3024314",
    "countryCode": "US",
    "subnational1Code": "US-MI",
    "subnational2Code": "US-MI-161",
    "lat": 42.2056334,
    "lng": -84.0884972,
    "locName": "Sharon Hills Preserve",
    "latestObsDt": "2025-09-18 11:05",
    "numSpeciesAllTime": 118
  },
  {
    "locId": "L4402906",
    "countryCode": "US",
    "subnational1Code": "US-MI",
    "subnational2Code": "US-MI-161",
    "lat": 42.2268013,
    "lng": -84.095149,
    "locName": "Sharon Hollow Rd. pond",
    "latestObsDt": "2025-08-01 10:55",
    "numSpeciesAllTime": 35
  },
  {
    "locId": "L20533360",
    "countryCode": "US",
    "subnational1Code": "US-MI",
    "subnational2Code": "US-MI-161",
    "lat": 42.1824016,
    "lng": -84.0935646,
    "locName": "Sharon Mills Co. Park--north",
    "latestObsDt": "2025-12-21 14:46",
    "numSpeciesAllTime": 179
  },
  {
    "locId": "L1849723",
    "countryCode": "US",
    "subnational1Code": "US-MI",
    "subnational2Code": "US-MI-161",
    "lat": 42.1777353,
    "lng": -84.092301,
    "locName": "Sharon Mills County Park",
    "latestObsDt": "2025-11-10 15:41",
    "numSpeciesAllTime": 175
  },
  {
    "locId": "L1513727",
    "countryCode": "US",
    "subnational1Code": "US-MI",
    "subnational2Code": "US-MI-161",
    "lat": 42.2289009,
    "lng": -84.053465,
    "locName": "Sharon Shorthills Preserve",
    "latestObsDt": "2025-10-25 11:26",
    "numSpeciesAllTime": 171
  },
  {
    "locId": "L43632293",
    "countryCode": "US",
    "subnational1Code": "US-MI",
    "subnational2Code": "US-MI-161",
    "lat": 42.1684075,
    "lng": -84.0757127,
    "locName": "Sharon Valley Rd and River Raisin Fellows' Bridge",
    "latestObsDt": "2025-08-25 11:30",
    "numSpeciesAllTime": 37
  },
  {
    "locId": "L1137478",
    "countryCode": "US",
    "subnational1Code": "US-MI",
    "subnational2Code": "US-MI-161",
    "lat": 42.1685883,
    "lng": -84.1147882,
    "locName": "Sharonville SGA (Washtenaw Co.)",
    "latestObsDt": "2025-12-24 08:09",
    "numSpeciesAllTime": 152
  },
  {
    "locId": "L2082271",
    "countryCode": "US",
    "subnational1Code": "US-MI",
    "subnational2Code": "US-MI-161",
    "lat": 42.3050309,
    "lng": -83.7803864,
    "locName": "Skyline High School",
    "latestObsDt": "2025-12-20 12:05",
    "numSpeciesAllTime": 114
  },
  {
    "locId": "L2842581",
    "countryCode": "US",
    "subnational1Code": "US-MI",
    "subnational2Code": "US-MI-161",
    "lat": 42.3162621,
    "lng": -83.884879,
    "locName": "Sloan Preserve",
    "latestObsDt": "2025-12-23 14:34",
    "numSpeciesAllTime": 111
  },
  {
    "locId": "L389647",
    "countryCode": "US",
    "subnational1Code": "US-MI",
    "subnational2Code": "US-MI-161",
    "lat": 42.2680362,
    "lng": -83.6880541,
    "locName": "South Pond",
    "latestObsDt": "2025-12-20 12:22",
    "numSpeciesAllTime": 169
  },
  {
    "locId": "L26682501",
    "countryCode": "US",
    "subnational1Code": "US-MI",
    "subnational2Code": "US-MI-161",
    "lat": 42.380622,
    "lng": -83.722629,
    "locName": "Spencer Rd. pond",
    "latestObsDt": "2025-12-20 06:45",
    "numSpeciesAllTime": 99
  },
  {
    "locId": "L9308015",
    "countryCode": "US",
    "subnational1Code": "US-MI",
    "subnational2Code": "US-MI-161",
    "lat": 42.3123636,
    "lng": -83.5901615,
    "locName": "Springhill Nature Preserve",
    "latestObsDt": "2025-01-29 14:16",
    "numSpeciesAllTime": 45
  },
  {
    "locId": "L8265851",
    "countryCode": "US",
    "subnational1Code": "US-MI",
    "subnational2Code": "US-MI-161",
    "lat": 42.2775663,
    "lng": -84.0760275,
    "locName": "Squiers Preserve",
    "latestObsDt": "2025-12-20 08:32",
    "numSpeciesAllTime": 116
  },
  {
    "locId": "L9555358",
    "countryCode": "US",
    "subnational1Code": "US-MI",
    "subnational2Code": "US-MI-161",
    "lat": 42.332098,
    "lng": -83.6100382,
    "locName": "Staebler Farm County Park",
    "latestObsDt": "2025-12-27 15:43",
    "numSpeciesAllTime": 78
  },
  {
    "locId": "L2082273",
    "countryCode": "US",
    "subnational1Code": "US-MI",
    "subnational2Code": "US-MI-161",
    "lat": 42.3078477,
    "lng": -83.7163675,
    "locName": "Stapp Nature Area",
    "latestObsDt": "2025-12-13 10:32",
    "numSpeciesAllTime": 88
  },
  {
    "locId": "L785292",
    "countryCode": "US",
    "subnational1Code": "US-MI",
    "subnational2Code": "US-MI-161",
    "lat": 42.1990925,
    "lng": -83.7356418,
    "locName": "State Rd. at Textile Rd.--pond",
    "latestObsDt": "2025-11-09 15:17",
    "numSpeciesAllTime": 134
  },
  {
    "locId": "L492247",
    "countryCode": "US",
    "subnational1Code": "US-MI",
    "subnational2Code": "US-MI-161",
    "lat": 42.4075797,
    "lng": -83.921556,
    "locName": "Stinchfield Woods",
    "latestObsDt": "2025-12-27 15:15",
    "numSpeciesAllTime": 157
  },
  {
    "locId": "L2082277",
    "countryCode": "US",
    "subnational1Code": "US-MI",
    "subnational2Code": "US-MI-161",
    "lat": 42.3116878,
    "lng": -83.6974311,
    "locName": "Sugarbush Park",
    "latestObsDt": "2025-12-20 11:50",
    "numSpeciesAllTime": 104
  },
  {
    "locId": "L14858640",
    "countryCode": "US",
    "subnational1Code": "US-MI",
    "subnational2Code": "US-MI-161",
    "lat": 42.2961462,
    "lng": -83.757995,
    "locName": "Sunset Brooks Nature Area",
    "latestObsDt": "2025-12-20 13:21",
    "numSpeciesAllTime": 56
  },
  {
    "locId": "L284573",
    "countryCode": "US",
    "subnational1Code": "US-MI",
    "subnational2Code": "US-MI-161",
    "lat": 42.2922212,
    "lng": -83.6031482,
    "locName": "Superior Twp. Roads",
    "latestObsDt": "2025-12-30 11:35",
    "numSpeciesAllTime": 200
  },
  {
    "locId": "L1445400",
    "countryCode": "US",
    "subnational1Code": "US-MI",
    "subnational2Code": "US-MI-161",
    "lat": 42.2572928,
    "lng": -83.9432657,
    "locName": "Sutton Lake",
    "latestObsDt": "2025-12-23 14:25",
    "numSpeciesAllTime": 132
  },
  {
    "locId": "L1143523",
    "countryCode": "US",
    "subnational1Code": "US-MI",
    "subnational2Code": "US-MI-161",
    "lat": 42.2359211,
    "lng": -83.7018369,
    "locName": "Swift Run Pond",
    "latestObsDt": "2025-12-22 13:53",
    "numSpeciesAllTime": 148
  },
  {
    "locId": "L15904271",
    "countryCode": "US",
    "subnational1Code": "US-MI",
    "subnational2Code": "US-MI-161",
    "lat": 42.252333,
    "lng": -83.686526,
    "locName": "Sylvan Park",
    "latestObsDt": "2025-12-22 14:12",
    "numSpeciesAllTime": 113
  },
  {
    "locId": "L2151624",
    "countryCode": "US",
    "subnational1Code": "US-MI",
    "subnational2Code": "US-MI-161",
    "lat": 42.1972405,
    "lng": -83.7664604,
    "locName": "Tefft Park",
    "latestObsDt": "2024-12-20 13:02",
    "numSpeciesAllTime": 56
  },
  {
    "locId": "L12246501",
    "countryCode": "US",
    "subnational1Code": "US-MI",
    "subnational2Code": "US-MI-161",
    "lat": 42.2508896,
    "lng": -83.7203103,
    "locName": "The Ponds trail",
    "latestObsDt": "2025-11-16 15:32",
    "numSpeciesAllTime": 65
  },
  {
    "locId": "L11233432",
    "countryCode": "US",
    "subnational1Code": "US-MI",
    "subnational2Code": "US-MI-161",
    "lat": 42.2404678,
    "lng": -83.6116593,
    "locName": "The Water Street Trail",
    "latestObsDt": "2025-09-27 10:46",
    "numSpeciesAllTime": 89
  },
  {
    "locId": "L685133",
    "countryCode": "US",
    "subnational1Code": "US-MI",
    "subnational2Code": "US-MI-161",
    "lat": 42.3092283,
    "lng": -83.7003922,
    "locName": "Thurston Pond",
    "latestObsDt": "2025-12-20 09:25",
    "numSpeciesAllTime": 167
  },
  {
    "locId": "L4624792",
    "countryCode": "US",
    "subnational1Code": "US-MI",
    "subnational2Code": "US-MI-161",
    "lat": 42.4041268,
    "lng": -83.9425164,
    "locName": "Toma Rd. and Stinchfield Woods Rd. powerline cut",
    "latestObsDt": "2025-11-04 13:23",
    "numSpeciesAllTime": 129
  },
  {
    "locId": "L2388678",
    "countryCode": "US",
    "subnational1Code": "US-MI",
    "subnational2Code": "US-MI-161",
    "lat": 42.087633,
    "lng": -83.5671311,
    "locName": "Torrey Rd. hawk watch",
    "latestObsDt": "2025-11-08 07:16",
    "numSpeciesAllTime": 119
  },
  {
    "locId": "L2082281",
    "countryCode": "US",
    "subnational1Code": "US-MI",
    "subnational2Code": "US-MI-161",
    "lat": 42.3122353,
    "lng": -83.7215281,
    "locName": "Traver Creek Nature Area",
    "latestObsDt": "2025-12-20 13:48",
    "numSpeciesAllTime": 80
  },
  {
    "locId": "L512604",
    "countryCode": "US",
    "subnational1Code": "US-MI",
    "subnational2Code": "US-MI-161",
    "lat": 42.309387,
    "lng": -83.9339161,
    "locName": "Trinkle Marsh",
    "latestObsDt": "2025-11-08 08:45",
    "numSpeciesAllTime": 191
  },
  {
    "locId": "L24081215",
    "countryCode": "US",
    "subnational1Code": "US-MI",
    "subnational2Code": "US-MI-161",
    "lat": 42.3090418,
    "lng": -83.7186581,
    "locName": "Tuebingen Park",
    "latestObsDt": "2024-10-04 17:02",
    "numSpeciesAllTime": 35
  },
  {
    "locId": "L11903487",
    "countryCode": "US",
    "subnational1Code": "US-MI",
    "subnational2Code": "US-MI-161",
    "lat": 42.19217,
    "lng": -83.581416,
    "locName": "Tuttle Hill Rd. ponds",
    "latestObsDt": "2024-10-06 11:11",
    "numSpeciesAllTime": 73
  },
  {
    "locId": "L28073819",
    "countryCode": "US",
    "subnational1Code": "US-MI",
    "subnational2Code": "US-MI-161",
    "lat": 42.259628,
    "lng": -83.7450015,
    "locName": "University of Michigan Golf Course",
    "latestObsDt": "2025-12-22 16:24",
    "numSpeciesAllTime": 18
  },
  {
    "locId": "L4850763",
    "countryCode": "US",
    "subnational1Code": "US-MI",
    "subnational2Code": "US-MI-161",
    "lat": 42.2756258,
    "lng": -83.7376857,
    "locName": "University of Michigan--Central Campus",
    "latestObsDt": "2025-12-20 08:44",
    "numSpeciesAllTime": 118
  },
  {
    "locId": "L14034394",
    "countryCode": "US",
    "subnational1Code": "US-MI",
    "subnational2Code": "US-MI-161",
    "lat": 42.2905911,
    "lng": -83.7191805,
    "locName": "University of Michigan--North Campus",
    "latestObsDt": "2025-12-26 14:37",
    "numSpeciesAllTime": 78
  },
  {
    "locId": "L4904660",
    "countryCode": "US",
    "subnational1Code": "US-MI",
    "subnational2Code": "US-MI-161",
    "lat": 42.2946435,
    "lng": -83.6955535,
    "locName": "University of Michigan--Northwood V. housing area",
    "latestObsDt": "2025-12-20 15:04",
    "numSpeciesAllTime": 66
  },
  {
    "locId": "L36387338",
    "countryCode": "US",
    "subnational1Code": "US-MI",
    "subnational2Code": "US-MI-161",
    "lat": 42.3401904,
    "lng": -83.8574061,
    "locName": "Van Curler Preserve",
    "latestObsDt": "2025-09-12 09:30",
    "numSpeciesAllTime": 85
  },
  {
    "locId": "L828868",
    "countryCode": "US",
    "subnational1Code": "US-MI",
    "subnational2Code": "US-MI-161",
    "lat": 42.2910722,
    "lng": -83.5701871,
    "locName": "Vreeland Rd.",
    "latestObsDt": "2025-12-30 17:02",
    "numSpeciesAllTime": 209
  },
  {
    "locId": "L35153895",
    "countryCode": "US",
    "subnational1Code": "US-MI",
    "subnational2Code": "US-MI-161",
    "lat": 42.288964,
    "lng": -83.634941,
    "locName": "Vreeland Rd. fluddle",
    "latestObsDt": "2025-12-20 10:38",
    "numSpeciesAllTime": 126
  },
  {
    "locId": "L1475046",
    "countryCode": "US",
    "subnational1Code": "US-MI",
    "subnational2Code": "US-MI-161",
    "lat": 42.2891886,
    "lng": -83.6156524,
    "locName": "Vreeland Rd. pond",
    "latestObsDt": "2025-12-20 11:30",
    "numSpeciesAllTime": 154
  },
  {
    "locId": "L11038419",
    "countryCode": "US",
    "subnational1Code": "US-MI",
    "subnational2Code": "US-MI-161",
    "lat": 42.2774,
    "lng": -84.0144,
    "locName": "Waltrous Rd.",
    "latestObsDt": "2025-05-10 11:58",
    "numSpeciesAllTime": 81
  },
  {
    "locId": "L36995361",
    "countryCode": "US",
    "subnational1Code": "US-MI",
    "subnational2Code": "US-MI-161",
    "lat": 42.2476763,
    "lng": -83.7460143,
    "locName": "Ward Park",
    "latestObsDt": "2025-10-01 14:45",
    "numSpeciesAllTime": 39
  },
  {
    "locId": "L1044770",
    "countryCode": "US",
    "subnational1Code": "US-MI",
    "subnational2Code": "US-MI-161",
    "lat": 42.2607315,
    "lng": -83.6650944,
    "locName": "Washtenaw Community College--East Woods",
    "latestObsDt": "2025-12-23 13:18",
    "numSpeciesAllTime": 66
  },
  {
    "locId": "L761586",
    "countryCode": "US",
    "subnational1Code": "US-MI",
    "subnational2Code": "US-MI-161",
    "lat": 42.2644793,
    "lng": -83.672905,
    "locName": "Washtenaw Community College--West Woods",
    "latestObsDt": "2025-12-23 14:19",
    "numSpeciesAllTime": 101
  },
  {
    "locId": "L894219",
    "countryCode": "US",
    "subnational1Code": "US-MI",
    "subnational2Code": "US-MI-161",
    "lat": 42.2916436,
    "lng": -83.6072981,
    "locName": "Water Conservation Easement (Vreeland Rd & Prospect Rd)",
    "latestObsDt": "2025-12-21 15:03",
    "numSpeciesAllTime": 164
  },
  {
    "locId": "L258923",
    "countryCode": "US",
    "subnational1Code": "US-MI",
    "subnational2Code": "US-MI-161",
    "lat": 42.3251672,
    "lng": -84.0957356,
    "locName": "Waterloo RA (Washtenaw Co.)",
    "latestObsDt": "2025-05-18 07:14",
    "numSpeciesAllTime": 191
  },
  {
    "locId": "L4600891",
    "countryCode": "US",
    "subnational1Code": "US-MI",
    "subnational2Code": "US-MI-161",
    "lat": 42.3582585,
    "lng": -84.0802038,
    "locName": "Waterloo RA--Cassidy Rd.",
    "latestObsDt": "2025-06-02 11:51",
    "numSpeciesAllTime": 121
  },
  {
    "locId": "L1916119",
    "countryCode": "US",
    "subnational1Code": "US-MI",
    "subnational2Code": "US-MI-161",
    "lat": 42.3218186,
    "lng": -84.1148043,
    "locName": "Waterloo RA--Crooked Lake",
    "latestObsDt": "2025-11-29 11:15",
    "numSpeciesAllTime": 201
  },
  {
    "locId": "L19025982",
    "countryCode": "US",
    "subnational1Code": "US-MI",
    "subnational2Code": "US-MI-161",
    "lat": 42.3617504,
    "lng": -84.0687693,
    "locName": "Waterloo RA--Green Lake Access",
    "latestObsDt": "2025-12-20 15:25",
    "numSpeciesAllTime": 102
  },
  {
    "locId": "L321171",
    "countryCode": "US",
    "subnational1Code": "US-MI",
    "subnational2Code": "US-MI-161",
    "lat": 42.372941,
    "lng": -84.0830217,
    "locName": "Waterloo RA--Green Lake Wetlands",
    "latestObsDt": "2025-04-14 18:27",
    "numSpeciesAllTime": 84
  },
  {
    "locId": "L2275398",
    "countryCode": "US",
    "subnational1Code": "US-MI",
    "subnational2Code": "US-MI-161",
    "lat": 42.3299966,
    "lng": -84.1208768,
    "locName": "Waterloo RA--McClure Rd.",
    "latestObsDt": "2025-06-15 12:50",
    "numSpeciesAllTime": 126
  },
  {
    "locId": "L18473929",
    "countryCode": "US",
    "subnational1Code": "US-MI",
    "subnational2Code": "US-MI-161",
    "lat": 42.332636,
    "lng": -84.093131,
    "locName": "Waterloo RA--Mill Lake",
    "latestObsDt": "2025-12-24 08:59",
    "numSpeciesAllTime": 134
  },
  {
    "locId": "L28817936",
    "countryCode": "US",
    "subnational1Code": "US-MI",
    "subnational2Code": "US-MI-161",
    "lat": 42.342878,
    "lng": -84.1205116,
    "locName": "Waterloo RA--Sugarloaf Lake Campground",
    "latestObsDt": "2025-05-29 21:20",
    "numSpeciesAllTime": 42
  },
  {
    "locId": "L687562",
    "countryCode": "US",
    "subnational1Code": "US-MI",
    "subnational2Code": "US-MI-161",
    "lat": 42.331466,
    "lng": -84.1156572,
    "locName": "Waterloo RA--Sylvan Springs",
    "latestObsDt": "2025-08-10 15:59",
    "numSpeciesAllTime": 108
  },
  {
    "locId": "L29069666",
    "countryCode": "US",
    "subnational1Code": "US-MI",
    "subnational2Code": "US-MI-161",
    "lat": 42.317713,
    "lng": -84.130948,
    "locName": "Waterloo RALoveland Rd. Juniper Fields",
    "latestObsDt": "2025-11-12 11:40",
    "numSpeciesAllTime": 60
  },
  {
    "locId": "L2661845",
    "countryCode": "US",
    "subnational1Code": "US-MI",
    "subnational2Code": "US-MI-161",
    "lat": 42.2353968,
    "lng": -83.6075771,
    "locName": "Waterworks Park",
    "latestObsDt": "2025-12-28 10:04",
    "numSpeciesAllTime": 167
  },
  {
    "locId": "L4765377",
    "countryCode": "US",
    "subnational1Code": "US-MI",
    "subnational2Code": "US-MI-161",
    "lat": 42.1297488,
    "lng": -84.1293639,
    "locName": "Watkins Lake County Preserve",
    "latestObsDt": "2025-12-23 10:05",
    "numSpeciesAllTime": 191
  },
  {
    "locId": "L4640089",
    "countryCode": "US",
    "subnational1Code": "US-MI",
    "subnational2Code": "US-MI-161",
    "lat": 42.3306544,
    "lng": -83.5852289,
    "locName": "Weatherbee Woods Preserve/Schroter Park",
    "latestObsDt": "2025-12-27 14:46",
    "numSpeciesAllTime": 84
  },
  {
    "locId": "L1187643",
    "countryCode": "US",
    "subnational1Code": "US-MI",
    "subnational2Code": "US-MI-161",
    "lat": 42.3514747,
    "lng": -84.0041256,
    "locName": "West Lake Preserve",
    "latestObsDt": "2025-12-23 09:41",
    "numSpeciesAllTime": 175
  },
  {
    "locId": "L1666034",
    "countryCode": "US",
    "subnational1Code": "US-MI",
    "subnational2Code": "US-MI-161",
    "lat": 42.2835176,
    "lng": -83.7541246,
    "locName": "West Park",
    "latestObsDt": "2025-12-20 15:02",
    "numSpeciesAllTime": 111
  },
  {
    "locId": "L11437341",
    "countryCode": "US",
    "subnational1Code": "US-MI",
    "subnational2Code": "US-MI-161",
    "lat": 42.2867854,
    "lng": -83.8809861,
    "locName": "West Scio Preserve--Dino Dr. trailhead",
    "latestObsDt": "2025-12-20 11:05",
    "numSpeciesAllTime": 126
  },
  {
    "locId": "L20409474",
    "countryCode": "US",
    "subnational1Code": "US-MI",
    "subnational2Code": "US-MI-161",
    "lat": 42.267351,
    "lng": -83.871159,
    "locName": "White Lotus Farm",
    "latestObsDt": "2025-04-26 12:33",
    "numSpeciesAllTime": 33
  },
  {
    "locId": "L15480584",
    "countryCode": "US",
    "subnational1Code": "US-MI",
    "subnational2Code": "US-MI-161",
    "lat": 42.3107892,
    "lng": -83.7715937,
    "locName": "White Oak Park",
    "latestObsDt": "2024-03-12 10:36",
    "numSpeciesAllTime": 27
  },
  {
    "locId": "L5813092",
    "countryCode": "US",
    "subnational1Code": "US-MI",
    "subnational2Code": "US-MI-161",
    "lat": 42.2137295,
    "lng": -83.6922394,
    "locName": "Whitehall Nursing Home fluddle",
    "latestObsDt": "2025-11-22 12:05",
    "numSpeciesAllTime": 86
  },
  {
    "locId": "L1275192",
    "countryCode": "US",
    "subnational1Code": "US-MI",
    "subnational2Code": "US-MI-161",
    "lat": 42.4225357,
    "lng": -83.7554741,
    "locName": "Whitmore Lake (Washtenaw Co.)",
    "latestObsDt": "2025-12-02 08:57",
    "numSpeciesAllTime": 127
  },
  {
    "locId": "L17721399",
    "countryCode": "US",
    "subnational1Code": "US-MI",
    "subnational2Code": "US-MI-161",
    "lat": 42.391612,
    "lng": -83.770766,
    "locName": "Whitmore Lake High School swamp",
    "latestObsDt": "2025-12-22 13:15",
    "numSpeciesAllTime": 94
  },
  {
    "locId": "L5580294",
    "countryCode": "US",
    "subnational1Code": "US-MI",
    "subnational2Code": "US-MI-161",
    "lat": 42.4130317,
    "lng": -83.7344912,
    "locName": "Whitmore Lake Preserve",
    "latestObsDt": "2025-12-27 11:22",
    "numSpeciesAllTime": 178
  },
  {
    "locId": "L20503683",
    "countryCode": "US",
    "subnational1Code": "US-MI",
    "subnational2Code": "US-MI-161",
    "lat": 42.4262703,
    "lng": -83.7292025,
    "locName": "Whitmore Lake Preserve--Spencer Fields",
    "latestObsDt": "2025-11-11 08:52",
    "numSpeciesAllTime": 70
  },
  {
    "locId": "L30113136",
    "countryCode": "US",
    "subnational1Code": "US-MI",
    "subnational2Code": "US-MI-161",
    "lat": 42.396837,
    "lng": -84.0235356,
    "locName": "Wild Goose Lake",
    "latestObsDt": "2025-11-14 12:41",
    "numSpeciesAllTime": 34
  },
  {
    "locId": "L9000726",
    "countryCode": "US",
    "subnational1Code": "US-MI",
    "subnational2Code": "US-MI-161",
    "lat": 42.1577147,
    "lng": -83.7737989,
    "locName": "Wilderness Park",
    "latestObsDt": "2025-11-04 14:54",
    "numSpeciesAllTime": 129
  },
  {
    "locId": "L18089501",
    "countryCode": "US",
    "subnational1Code": "US-MI",
    "subnational2Code": "US-MI-161",
    "lat": 42.1116909,
    "lng": -83.7748474,
    "locName": "Willow Rd. and Maple Rd. fields",
    "latestObsDt": "2025-05-20 12:01",
    "numSpeciesAllTime": 49
  },
  {
    "locId": "L24541058",
    "countryCode": "US",
    "subnational1Code": "US-MI",
    "subnational2Code": "US-MI-161",
    "lat": 42.3465187,
    "lng": -83.8066252,
    "locName": "Woodland Preserve",
    "latestObsDt": "2025-05-10 05:59",
    "numSpeciesAllTime": 36
  },
  {
    "locId": "L11808816",
    "countryCode": "US",
    "subnational1Code": "US-MI",
    "subnational2Code": "US-MI-161",
    "lat": 42.198913,
    "lng": -83.747957,
    "locName": "Woolley Park",
    "latestObsDt": "2025-05-10 06:32",
    "numSpeciesAllTime": 45
  },
  {
    "locId": "L9240690",
    "countryCode": "US",
    "subnational1Code": "US-MI",
    "subnational2Code": "US-MI-161",
    "lat": 42.2730099,
    "lng": -83.7543704,
    "locName": "Wurster Park",
    "latestObsDt": "2025-12-20 15:12",
    "numSpeciesAllTime": 55
  },
  {
    "locId": "L16087632",
    "countryCode": "US",
    "subnational1Code": "US-MI",
    "subnational2Code": "US-MI-161",
    "lat": 42.2427337,
    "lng": -83.6138465,
    "locName": "Ypsilanti Alehouse/Haabs Health Building (Swifts & Nighthawks watch)",
    "latestObsDt": "2025-08-29 21:26",
    "numSpeciesAllTime": 34
  },
  {
    "locId": "L35186133",
    "countryCode": "US",
    "subnational1Code": "US-MI",
    "subnational2Code": "US-MI-161",
    "lat": 42.2734395,
    "lng": -83.5824544,
    "locName": "Ypsilanti District Library-Superior",
    "latestObsDt": "2025-06-06 17:03",
    "numSpeciesAllTime": 20
  },
  {
    "locId": "L10873562",
    "countryCode": "US",
    "subnational1Code": "US-MI",
    "subnational2Code": "US-MI-161",
    "lat": 42.2973665,
    "lng": -84.0939032,
    "locName": "stakeout Harris's Sparrow, Chelsea (2020)",
    "latestObsDt": "2023-11-20 16:00",
    "numSpeciesAllTime": 40
  },
  {
    "locId": "L11250680",
    "countryCode": "US",
    "subnational1Code": "US-MI",
    "subnational2Code": "US-MI-161",
    "lat": 42.2210186,
    "lng": -83.663225,
    "locName": "stakeout Hooded Oriole, The Pines of Cloverlane (2020)",
    "latestObsDt": "2025-11-14 14:00",
    "numSpeciesAllTime": 57
  },
  {
    "locId": "L15848733",
    "countryCode": "US",
    "subnational1Code": "US-MI",
    "subnational2Code": "US-MI-161",
    "lat": 42.1708306,
    "lng": -83.7660566,
    "locName": "stakeout Roseate Spoonbill, Bemis Rd. swamp (2021)",
    "latestObsDt": "2025-08-06 11:33",
    "numSpeciesAllTime": 63
  },
  {
    "locId": "L15789326",
    "countryCode": "US",
    "subnational1Code": "US-MI",
    "subnational2Code": "US-MI-161",
    "lat": 42.155706,
    "lng": -83.77398,
    "locName": "stakeout Roseate Spoonbill, Koch Warner Drain, Saline (2021)",
    "latestObsDt": "2025-09-22 14:23",
    "numSpeciesAllTime": 87
  }
]