[
  {
    "locId": "L10331135",
    "name": "Allen Woods Nature Preserve",
    "lat": 42.21896,
    "lng": -83.233117,
    "numSpecies": 30,
    "latestObs": "2026-03-14 13:50",
    "knowledge": null,
    "parking": null,
    "hours": null,
    "fee": null,
    "features": [],
    "habitats": [],
    "tips": [],
    "links": [],
    "lastUpdated": null,
    "howToBird": null
  },
  {
    "locId": "L10038900",
    "name": "Aretha Franklin Ampitheatre (Chene Park)",
    "lat": 42.3342632,
    "lng": -83.0214821,
    "numSpecies": 44,
    "latestObs": "2026-02-10 14:25",
    "knowledge": null,
    "parking": null,
    "hours": null,
    "fee": null,
    "features": [],
    "habitats": [],
    "tips": [],
    "links": [],
    "lastUpdated": null,
    "howToBird": null
  },
  {
    "locId": "L6325974",
    "name": "Arkona Rd. marsh",
    "lat": 42.1035435,
    "lng": -83.4235615,
    "numSpecies": 140,
    "latestObs": "2026-03-21 12:37",
    "knowledge": null,
    "parking": null,
    "hours": null,
    "fee": null,
    "features": [],
    "habitats": [],
    "tips": [],
    "links": [],
    "lastUpdated": null,
    "howToBird": null
  },
  {
    "locId": "L30103648",
    "name": "Attwood Park",
    "lat": 42.2705292,
    "lng": -83.3707166,
    "numSpecies": 50,
    "latestObs": "2026-03-12 15:48",
    "knowledge": null,
    "parking": null,
    "hours": null,
    "fee": null,
    "features": [],
    "habitats": [],
    "tips": [],
    "links": [],
    "lastUpdated": null,
    "howToBird": null
  },
  {
    "locId": "L11227753",
    "name": "BASF Waterfront Park",
    "lat": 42.1964419,
    "lng": -83.1509635,
    "numSpecies": 53,
    "latestObs": "2026-01-04 16:03",
    "knowledge": null,
    "parking": null,
    "hours": null,
    "fee": null,
    "features": [],
    "habitats": [],
    "tips": [],
    "links": [],
    "lastUpdated": null,
    "howToBird": null
  },
  {
    "locId": "L9404414",
    "name": "Balduck Park",
    "lat": 42.4167595,
    "lng": -82.9200419,
    "numSpecies": 99,
    "latestObs": "2026-03-19 12:21",
    "knowledge": null,
    "parking": null,
    "hours": null,
    "fee": null,
    "features": [],
    "habitats": [],
    "tips": [],
    "links": [],
    "lastUpdated": null,
    "howToBird": null
  },
  {
    "locId": "L18104441",
    "name": "Banotai Park/Sherwood Pond",
    "lat": 42.123501,
    "lng": -83.5196245,
    "numSpecies": 102,
    "latestObs": "2026-03-08 08:16",
    "knowledge": null,
    "parking": null,
    "hours": null,
    "fee": null,
    "features": [],
    "habitats": [],
    "tips": [],
    "links": [],
    "lastUpdated": null,
    "howToBird": null
  },
  {
    "locId": "L29810571",
    "name": "Barchester Park",
    "lat": 42.33117,
    "lng": -83.4656353,
    "numSpecies": 77,
    "latestObs": "2026-03-21 17:26",
    "knowledge": null,
    "parking": null,
    "hours": null,
    "fee": null,
    "features": [],
    "habitats": [],
    "tips": [],
    "links": [],
    "lastUpdated": null,
    "howToBird": null
  },
  {
    "locId": "L12501079",
    "name": "Bell Creek Co. Park",
    "lat": 42.4008652,
    "lng": -83.3128023,
    "numSpecies": 58,
    "latestObs": "2024-10-28 11:12",
    "knowledge": null,
    "parking": null,
    "hours": null,
    "fee": null,
    "features": [],
    "habitats": [],
    "tips": [],
    "links": [],
    "lastUpdated": null,
    "howToBird": null
  },
  {
    "locId": "L784402",
    "name": "Bell Creek Nature Preserve",
    "lat": 42.4076149,
    "lng": -83.3242607,
    "numSpecies": 85,
    "latestObs": "2026-03-16 12:13",
    "knowledge": null,
    "parking": null,
    "hours": null,
    "fee": null,
    "features": [],
    "habitats": [],
    "tips": [],
    "links": [],
    "lastUpdated": null,
    "howToBird": null
  },
  {
    "locId": "L275577",
    "name": "Belle Isle",
    "lat": 42.340086,
    "lng": -82.9775444,
    "numSpecies": 262,
    "latestObs": "2026-03-21 20:12",
    "knowledge": null,
    "parking": null,
    "hours": null,
    "fee": null,
    "features": [],
    "habitats": [],
    "tips": [],
    "links": [],
    "lastUpdated": null,
    "howToBird": null
  },
  {
    "locId": "L22210760",
    "name": "Belleville Lake East Boat Launch",
    "lat": 42.2132186,
    "lng": -83.4730195,
    "numSpecies": 22,
    "latestObs": "2026-03-01 17:12",
    "knowledge": null,
    "parking": null,
    "hours": null,
    "fee": null,
    "features": [],
    "habitats": [],
    "tips": [],
    "links": [],
    "lastUpdated": null,
    "howToBird": null
  },
  {
    "locId": "L2623217",
    "name": "Belleville Lake--Belleville Rd. access",
    "lat": 42.2123087,
    "lng": -83.492403,
    "numSpecies": 78,
    "latestObs": "2026-03-03 10:34",
    "knowledge": null,
    "parking": null,
    "hours": null,
    "fee": null,
    "features": [],
    "habitats": [],
    "tips": [],
    "links": [],
    "lastUpdated": null,
    "howToBird": null
  },
  {
    "locId": "L387457",
    "name": "Belleville Lake--Van Buren Park",
    "lat": 42.2128989,
    "lng": -83.5254822,
    "numSpecies": 120,
    "latestObs": "2026-03-17 11:04",
    "knowledge": null,
    "parking": null,
    "hours": null,
    "fee": null,
    "features": [],
    "habitats": [],
    "tips": [],
    "links": [],
    "lastUpdated": null,
    "howToBird": null
  },
  {
    "locId": "L21797007",
    "name": "Belleville Rd. gull roost (private property, no public access)",
    "lat": 42.2668366,
    "lng": -83.4860238,
    "numSpecies": 8,
    "latestObs": "2023-12-23 09:52",
    "knowledge": null,
    "parking": null,
    "hours": null,
    "fee": null,
    "features": [],
    "habitats": [],
    "tips": [],
    "links": [],
    "lastUpdated": null,
    "howToBird": null
  },
  {
    "locId": "L8645847",
    "name": "Belleville West Boating Access Site",
    "lat": 42.209487,
    "lng": -83.5397974,
    "numSpecies": 138,
    "latestObs": "2026-03-22 09:41",
    "knowledge": null,
    "parking": null,
    "hours": null,
    "fee": null,
    "features": [],
    "habitats": [],
    "tips": [],
    "links": [],
    "lastUpdated": null,
    "howToBird": null
  },
  {
    "locId": "L15057308",
    "name": "Bicentennial Park",
    "lat": 42.4300269,
    "lng": -83.3933824,
    "numSpecies": 46,
    "latestObs": "2025-08-23 07:28",
    "knowledge": null,
    "parking": null,
    "hours": null,
    "fee": null,
    "features": [],
    "habitats": [],
    "tips": [],
    "links": [],
    "lastUpdated": null,
    "howToBird": null
  },
  {
    "locId": "L18657188",
    "name": "Bishop Park",
    "lat": 42.355672,
    "lng": -83.1035487,
    "numSpecies": 25,
    "latestObs": "2025-08-11 19:21",
    "knowledge": null,
    "parking": null,
    "hours": null,
    "fee": null,
    "features": [],
    "habitats": [],
    "tips": [],
    "links": [],
    "lastUpdated": null,
    "howToBird": null
  },
  {
    "locId": "L2697026",
    "name": "Bishop Park",
    "lat": 42.2058877,
    "lng": -83.1463552,
    "numSpecies": 87,
    "latestObs": "2026-02-28 09:33",
    "knowledge": null,
    "parking": null,
    "hours": null,
    "fee": null,
    "features": [],
    "habitats": [],
    "tips": [],
    "links": [],
    "lastUpdated": null,
    "howToBird": null
  },
  {
    "locId": "L16536560",
    "name": "Bryant-Vermont Park",
    "lat": 42.352159,
    "lng": -83.084917,
    "numSpecies": 32,
    "latestObs": "2026-01-03 13:28",
    "knowledge": null,
    "parking": null,
    "hours": null,
    "fee": null,
    "features": [],
    "habitats": [],
    "tips": [],
    "links": [],
    "lastUpdated": null,
    "howToBird": null
  },
  {
    "locId": "L10097299",
    "name": "Cadillac Square Park",
    "lat": 42.3315549,
    "lng": -83.045482,
    "numSpecies": 45,
    "latestObs": "2025-12-23 11:46",
    "knowledge": null,
    "parking": null,
    "hours": null,
    "fee": null,
    "features": [],
    "habitats": [],
    "tips": [],
    "links": [],
    "lastUpdated": null,
    "howToBird": null
  },
  {
    "locId": "L9907854",
    "name": "Callahan Park",
    "lat": 42.372367,
    "lng": -83.035751,
    "numSpecies": 122,
    "latestObs": "2026-03-07 08:30",
    "knowledge": null,
    "parking": null,
    "hours": null,
    "fee": null,
    "features": [],
    "habitats": [],
    "tips": [],
    "links": [],
    "lastUpdated": null,
    "howToBird": null
  },
  {
    "locId": "L492304",
    "name": "Campau Rd. & Pte. Mouillee Headquarters (Wayne County)",
    "lat": 42.0435503,
    "lng": -83.2002901,
    "numSpecies": 249,
    "latestObs": "2026-03-17 19:46",
    "knowledge": null,
    "parking": null,
    "hours": null,
    "fee": null,
    "features": [],
    "habitats": [],
    "tips": [],
    "links": [],
    "lastUpdated": null,
    "howToBird": null
  },
  {
    "locId": "L9953068",
    "name": "Campus Martius Park",
    "lat": 42.331689,
    "lng": -83.046608,
    "numSpecies": 55,
    "latestObs": "2026-03-19 15:36",
    "knowledge": null,
    "parking": null,
    "hours": null,
    "fee": null,
    "features": [],
    "habitats": [],
    "tips": [],
    "links": [],
    "lastUpdated": null,
    "howToBird": null
  },
  {
    "locId": "L7197215",
    "name": "Canterbury Garden Marsh",
    "lat": 42.1135132,
    "lng": -83.4030238,
    "numSpecies": 36,
    "latestObs": "2026-01-12 13:14",
    "knowledge": null,
    "parking": null,
    "hours": null,
    "fee": null,
    "features": [],
    "habitats": [],
    "tips": [],
    "links": [],
    "lastUpdated": null,
    "howToBird": null
  },
  {
    "locId": "L918384",
    "name": "Canton Landfill Marsh",
    "lat": 42.273403,
    "lng": -83.4646797,
    "numSpecies": 132,
    "latestObs": "2026-03-19 19:02",
    "knowledge": null,
    "parking": null,
    "hours": null,
    "fee": null,
    "features": [],
    "habitats": [],
    "tips": [],
    "links": [],
    "lastUpdated": null,
    "howToBird": null
  },
  {
    "locId": "L1084433",
    "name": "Canton Rouge River Trail",
    "lat": 42.281627,
    "lng": -83.4677696,
    "numSpecies": 170,
    "latestObs": "2026-03-10 19:10",
    "knowledge": null,
    "parking": null,
    "hours": null,
    "fee": null,
    "features": [],
    "habitats": [],
    "tips": [],
    "links": [],
    "lastUpdated": null,
    "howToBird": null
  },
  {
    "locId": "L9131120",
    "name": "Canton–Plymouth Mettetal Airport",
    "lat": 42.3485142,
    "lng": -83.4574056,
    "numSpecies": 26,
    "latestObs": "2026-01-02 09:28",
    "knowledge": null,
    "parking": null,
    "hours": null,
    "fee": null,
    "features": [],
    "habitats": [],
    "tips": [],
    "links": [],
    "lastUpdated": null,
    "howToBird": null
  },
  {
    "locId": "L9981615",
    "name": "Capital Park",
    "lat": 42.332816,
    "lng": -83.049429,
    "numSpecies": 47,
    "latestObs": "2026-01-01 09:32",
    "knowledge": null,
    "parking": null,
    "hours": null,
    "fee": null,
    "features": [],
    "habitats": [],
    "tips": [],
    "links": [],
    "lastUpdated": null,
    "howToBird": null
  },
  {
    "locId": "L11528718",
    "name": "Cass Park",
    "lat": 42.3404131,
    "lng": -83.0603652,
    "numSpecies": 84,
    "latestObs": "2025-10-01 10:02",
    "knowledge": null,
    "parking": null,
    "hours": null,
    "fee": null,
    "features": [],
    "habitats": [],
    "tips": [],
    "links": [],
    "lastUpdated": null,
    "howToBird": null
  },
  {
    "locId": "L21173435",
    "name": "Celeron Island",
    "lat": 42.0796259,
    "lng": -83.1731661,
    "numSpecies": 134,
    "latestObs": "2025-11-24 13:59",
    "knowledge": null,
    "parking": null,
    "hours": null,
    "fee": null,
    "features": [],
    "habitats": [],
    "tips": [],
    "links": [],
    "lastUpdated": null,
    "howToBird": null
  },
  {
    "locId": "L16242543",
    "name": "Chandler Park",
    "lat": 42.394652,
    "lng": -82.9733568,
    "numSpecies": 84,
    "latestObs": "2026-02-12 13:02",
    "knowledge": null,
    "parking": null,
    "hours": null,
    "fee": null,
    "features": [],
    "habitats": [],
    "tips": [],
    "links": [],
    "lastUpdated": null,
    "howToBird": null
  },
  {
    "locId": "L23114230",
    "name": "Church Rd.--Detroit River overlook",
    "lat": 42.1507771,
    "lng": -83.1384747,
    "numSpecies": 71,
    "latestObs": "2026-03-16 18:02",
    "knowledge": null,
    "parking": null,
    "hours": null,
    "fee": null,
    "features": [],
    "habitats": [],
    "tips": [],
    "links": [],
    "lastUpdated": null,
    "howToBird": null
  },
  {
    "locId": "L16454584",
    "name": "Circle Forest",
    "lat": 42.373823,
    "lng": -83.036983,
    "numSpecies": 95,
    "latestObs": "2026-01-01 09:47",
    "knowledge": null,
    "parking": null,
    "hours": null,
    "fee": null,
    "features": [],
    "habitats": [],
    "tips": [],
    "links": [],
    "lastUpdated": null,
    "howToBird": null
  },
  {
    "locId": "L22277988",
    "name": "Clark and Oakville Waltz Rds.--field",
    "lat": 42.0962084,
    "lng": -83.4184334,
    "numSpecies": 102,
    "latestObs": "2026-01-12 12:30",
    "knowledge": null,
    "parking": null,
    "hours": null,
    "fee": null,
    "features": [],
    "habitats": [],
    "tips": [],
    "links": [],
    "lastUpdated": null,
    "howToBird": null
  },
  {
    "locId": "L2985785",
    "name": "Coldwater Springs Nature Area",
    "lat": 42.3989241,
    "lng": -83.5275239,
    "numSpecies": 151,
    "latestObs": "2026-03-01 12:39",
    "knowledge": null,
    "parking": null,
    "hours": null,
    "fee": null,
    "features": [],
    "habitats": [],
    "tips": [],
    "links": [],
    "lastUpdated": null,
    "howToBird": null
  },
  {
    "locId": "L22750551",
    "name": "Corewell Hospital--fields",
    "lat": 42.118884,
    "lng": -83.212686,
    "numSpecies": 34,
    "latestObs": "2025-05-07 14:15",
    "knowledge": null,
    "parking": null,
    "hours": null,
    "fee": null,
    "features": [],
    "habitats": [],
    "tips": [],
    "links": [],
    "lastUpdated": null,
    "howToBird": null
  },
  {
    "locId": "L35221965",
    "name": "Corrado Park",
    "lat": 42.3531676,
    "lng": -83.3427339,
    "numSpecies": 16,
    "latestObs": "2025-07-26 13:35",
    "knowledge": null,
    "parking": null,
    "hours": null,
    "fee": null,
    "features": [],
    "habitats": [],
    "tips": [],
    "links": [],
    "lastUpdated": null,
    "howToBird": null
  },
  {
    "locId": "L16943843",
    "name": "Council Point Park",
    "lat": 42.2358696,
    "lng": -83.1624044,
    "numSpecies": 94,
    "latestObs": "2026-02-15 07:59",
    "knowledge": null,
    "parking": null,
    "hours": null,
    "fee": null,
    "features": [],
    "habitats": [],
    "tips": [],
    "links": [],
    "lastUpdated": null,
    "howToBird": null
  },
  {
    "locId": "L356877",
    "name": "Crosswinds Marsh",
    "lat": 42.09504,
    "lng": -83.446,
    "numSpecies": 238,
    "latestObs": "2026-03-21 14:20",
    "knowledge": null,
    "parking": null,
    "hours": null,
    "fee": null,
    "features": [],
    "habitats": [],
    "tips": [],
    "links": [],
    "lastUpdated": null,
    "howToBird": null
  },
  {
    "locId": "L7346488",
    "name": "D-Town Farm",
    "lat": 42.36686,
    "lng": -83.26018,
    "numSpecies": 16,
    "latestObs": "2026-01-08 15:52",
    "knowledge": null,
    "parking": null,
    "hours": null,
    "fee": null,
    "features": [],
    "habitats": [],
    "tips": [],
    "links": [],
    "lastUpdated": null,
    "howToBird": null
  },
  {
    "locId": "L518005",
    "name": "Dearborn Ford Plantings--Ford & Mercury",
    "lat": 42.3275299,
    "lng": -83.2062972,
    "numSpecies": 67,
    "latestObs": "2026-03-19 18:15",
    "knowledge": null,
    "parking": null,
    "hours": null,
    "fee": null,
    "features": [],
    "habitats": [],
    "tips": [],
    "links": [],
    "lastUpdated": null,
    "howToBird": null
  },
  {
    "locId": "L525698",
    "name": "Dearborn Ford Plantings--Headquarters",
    "lat": 42.3146709,
    "lng": -83.2054281,
    "numSpecies": 64,
    "latestObs": "2026-03-18 13:55",
    "knowledge": null,
    "parking": null,
    "hours": null,
    "fee": null,
    "features": [],
    "habitats": [],
    "tips": [],
    "links": [],
    "lastUpdated": null,
    "howToBird": null
  },
  {
    "locId": "L525696",
    "name": "Dearborn Ford Plantings--Hubbard & Southfield",
    "lat": 42.3207953,
    "lng": -83.2103205,
    "numSpecies": 100,
    "latestObs": "2026-03-18 13:42",
    "knowledge": null,
    "parking": null,
    "hours": null,
    "fee": null,
    "features": [],
    "habitats": [],
    "tips": [],
    "links": [],
    "lastUpdated": null,
    "howToBird": null
  },
  {
    "locId": "L526672",
    "name": "Dearborn Ford Plantings--Rotunda & Southfield",
    "lat": 42.2957863,
    "lng": -83.2078743,
    "numSpecies": 63,
    "latestObs": "2026-03-18 14:06",
    "knowledge": null,
    "parking": null,
    "hours": null,
    "fee": null,
    "features": [],
    "habitats": [],
    "tips": [],
    "links": [],
    "lastUpdated": null,
    "howToBird": null
  },
  {
    "locId": "L13734942",
    "name": "Dearborn Hills Golf Course",
    "lat": 42.3020352,
    "lng": -83.278556,
    "numSpecies": 56,
    "latestObs": "2026-03-20 09:06",
    "knowledge": null,
    "parking": null,
    "hours": null,
    "fee": null,
    "features": [],
    "habitats": [],
    "tips": [],
    "links": [],
    "lastUpdated": null,
    "howToBird": null
  },
  {
    "locId": "L23822980",
    "name": "Dearborn Rouge River Riverside Trail",
    "lat": 42.3078479,
    "lng": -83.2549772,
    "numSpecies": 87,
    "latestObs": "2026-03-20 08:33",
    "knowledge": null,
    "parking": null,
    "hours": null,
    "fee": null,
    "features": [],
    "habitats": [],
    "tips": [],
    "links": [],
    "lastUpdated": null,
    "howToBird": null
  },
  {
    "locId": "L25291203",
    "name": "Detroit Abloom",
    "lat": 42.363609,
    "lng": -82.934135,
    "numSpecies": 29,
    "latestObs": "2026-03-17 13:51",
    "knowledge": null,
    "parking": null,
    "hours": null,
    "fee": null,
    "features": [],
    "habitats": [],
    "tips": [],
    "links": [],
    "lastUpdated": null,
    "howToBird": null
  },
  {
    "locId": "L48600028",
    "name": "Detroit Golf Club",
    "lat": 42.4264897,
    "lng": -83.1259918,
    "numSpecies": 35,
    "latestObs": "2025-06-29 05:45",
    "knowledge": null,
    "parking": null,
    "hours": null,
    "fee": null,
    "features": [],
    "habitats": [],
    "tips": [],
    "links": [],
    "lastUpdated": null,
    "howToBird": null
  },
  {
    "locId": "L299938",
    "name": "Detroit Metro Airport (restricted access)",
    "lat": 42.21188,
    "lng": -83.35047,
    "numSpecies": 132,
    "latestObs": "2026-03-21 16:17",
    "knowledge": null,
    "parking": null,
    "hours": null,
    "fee": null,
    "features": [],
    "habitats": [],
    "tips": [],
    "links": [],
    "lastUpdated": null,
    "howToBird": null
  },
  {
    "locId": "L13593980",
    "name": "Detroit River IWR - Sugar Island Unit (Restricted Access)",
    "lat": 42.0910427,
    "lng": -83.144843,
    "numSpecies": 146,
    "latestObs": "2025-09-21 12:11",
    "knowledge": null,
    "parking": null,
    "hours": null,
    "fee": null,
    "features": [],
    "habitats": [],
    "tips": [],
    "links": [],
    "lastUpdated": null,
    "howToBird": null
  },
  {
    "locId": "L4975469",
    "name": "Detroit River IWR--Gibraltar Bay Unit",
    "lat": 42.0977091,
    "lng": -83.1536104,
    "numSpecies": 186,
    "latestObs": "2026-03-14 16:43",
    "knowledge": null,
    "parking": null,
    "hours": null,
    "fee": null,
    "features": [],
    "habitats": [],
    "tips": [],
    "links": [],
    "lastUpdated": null,
    "howToBird": null
  },
  {
    "locId": "L1416358",
    "name": "Detroit River IWR--Gibraltar Wetlands Unit (restricted access)",
    "lat": 42.0881579,
    "lng": -83.2178353,
    "numSpecies": 77,
    "latestObs": "2025-09-13 10:35",
    "knowledge": null,
    "parking": null,
    "hours": null,
    "fee": null,
    "features": [],
    "habitats": [],
    "tips": [],
    "links": [],
    "lastUpdated": null,
    "howToBird": null
  },
  {
    "locId": "L454613",
    "name": "Detroit River IWR--Refuge Gateway (Humbug Marsh)",
    "lat": 42.1155366,
    "lng": -83.1875275,
    "numSpecies": 223,
    "latestObs": "2026-03-21 08:03",
    "knowledge": null,
    "parking": null,
    "hours": null,
    "fee": null,
    "features": [],
    "habitats": [],
    "tips": [],
    "links": [],
    "lastUpdated": null,
    "howToBird": null
  },
  {
    "locId": "L11976462",
    "name": "Detroit Riverwalk",
    "lat": 42.3310029,
    "lng": -83.0315173,
    "numSpecies": 95,
    "latestObs": "2026-03-21 14:23",
    "knowledge": null,
    "parking": null,
    "hours": null,
    "fee": null,
    "features": [],
    "habitats": [],
    "tips": [],
    "links": [],
    "lastUpdated": null,
    "howToBird": null
  },
  {
    "locId": "L2676444",
    "name": "Dingell Park (formally Ecorse Park)",
    "lat": 42.2404704,
    "lng": -83.1446171,
    "numSpecies": 95,
    "latestObs": "2026-03-14 12:32",
    "knowledge": null,
    "parking": null,
    "hours": null,
    "fee": null,
    "features": [],
    "habitats": [],
    "tips": [],
    "links": [],
    "lastUpdated": null,
    "howToBird": null
  },
  {
    "locId": "L508337",
    "name": "Edison Lake Dam",
    "lat": 42.2148515,
    "lng": -83.4430075,
    "numSpecies": 90,
    "latestObs": "2026-03-15 14:11",
    "knowledge": null,
    "parking": null,
    "hours": null,
    "fee": null,
    "features": [],
    "habitats": [],
    "tips": [],
    "links": [],
    "lastUpdated": null,
    "howToBird": null
  },
  {
    "locId": "L1864984",
    "name": "Eliza Howell Park",
    "lat": 42.3916497,
    "lng": -83.2697544,
    "numSpecies": 151,
    "latestObs": "2026-01-31 12:01",
    "knowledge": null,
    "parking": null,
    "hours": null,
    "fee": null,
    "features": [],
    "habitats": [],
    "tips": [],
    "links": [],
    "lastUpdated": null,
    "howToBird": null
  },
  {
    "locId": "L1145147",
    "name": "Elizabeth Park (Trenton)",
    "lat": 42.133622,
    "lng": -83.1780052,
    "numSpecies": 206,
    "latestObs": "2026-03-15 17:16",
    "knowledge": null,
    "parking": null,
    "hours": null,
    "fee": null,
    "features": [],
    "habitats": [],
    "tips": [],
    "links": [],
    "lastUpdated": null,
    "howToBird": null
  },
  {
    "locId": "L3961129",
    "name": "Elmwood Cemetery",
    "lat": 42.347068,
    "lng": -83.017395,
    "numSpecies": 145,
    "latestObs": "2026-03-11 11:34",
    "knowledge": null,
    "parking": null,
    "hours": null,
    "fee": null,
    "features": [],
    "habitats": [],
    "tips": [],
    "links": [],
    "lastUpdated": null,
    "howToBird": null
  },
  {
    "locId": "L21702827",
    "name": "Erma Henderson Park",
    "lat": 42.3521003,
    "lng": -82.9869544,
    "numSpecies": 40,
    "latestObs": "2026-03-17 13:10",
    "knowledge": null,
    "parking": null,
    "hours": null,
    "fee": null,
    "features": [],
    "habitats": [],
    "tips": [],
    "links": [],
    "lastUpdated": null,
    "howToBird": null
  },
  {
    "locId": "L6709546",
    "name": "Fairlane Green Retention Ponds",
    "lat": 42.2799442,
    "lng": -83.2099342,
    "numSpecies": 110,
    "latestObs": "2026-03-21 08:26",
    "knowledge": null,
    "parking": null,
    "hours": null,
    "fee": null,
    "features": [],
    "habitats": [],
    "tips": [],
    "links": [],
    "lastUpdated": null,
    "howToBird": null
  },
  {
    "locId": "L13187452",
    "name": "Fairlane Woods",
    "lat": 42.3255577,
    "lng": -83.2258363,
    "numSpecies": 13,
    "latestObs": "2024-05-02 08:19",
    "knowledge": null,
    "parking": null,
    "hours": null,
    "fee": null,
    "features": [],
    "habitats": [],
    "tips": [],
    "links": [],
    "lastUpdated": null,
    "howToBird": null
  },
  {
    "locId": "L17055092",
    "name": "First Responders Memorial and Haggerty West Recreation Area",
    "lat": 42.3707907,
    "lng": -83.4465225,
    "numSpecies": 50,
    "latestObs": "2026-03-20 16:17",
    "knowledge": null,
    "parking": null,
    "hours": null,
    "fee": null,
    "features": [],
    "habitats": [],
    "tips": [],
    "links": [],
    "lastUpdated": null,
    "howToBird": null
  },
  {
    "locId": "L57122722",
    "name": "Fish Hatchery Park",
    "lat": 42.424081,
    "lng": -83.493079,
    "numSpecies": 29,
    "latestObs": "2026-03-17 12:21",
    "knowledge": null,
    "parking": null,
    "hours": null,
    "fee": null,
    "features": [],
    "habitats": [],
    "tips": [],
    "links": [],
    "lastUpdated": null,
    "howToBird": null
  },
  {
    "locId": "L27327383",
    "name": "Flodin Park",
    "lat": 42.3135609,
    "lng": -83.465294,
    "numSpecies": 82,
    "latestObs": "2026-03-12 19:16",
    "knowledge": null,
    "parking": null,
    "hours": null,
    "fee": null,
    "features": [],
    "habitats": [],
    "tips": [],
    "links": [],
    "lastUpdated": null,
    "howToBird": null
  },
  {
    "locId": "L11659766",
    "name": "Ford Field Park",
    "lat": 42.3102917,
    "lng": -83.2450772,
    "numSpecies": 73,
    "latestObs": "2026-03-12 17:50",
    "knowledge": null,
    "parking": null,
    "hours": null,
    "fee": null,
    "features": [],
    "habitats": [],
    "tips": [],
    "links": [],
    "lastUpdated": null,
    "howToBird": null
  },
  {
    "locId": "L56668545",
    "name": "Ford World HQ Campus",
    "lat": 42.2960561,
    "lng": -83.2381857,
    "numSpecies": 8,
    "latestObs": "2026-03-18 14:14",
    "knowledge": null,
    "parking": null,
    "hours": null,
    "fee": null,
    "features": [],
    "habitats": [],
    "tips": [],
    "links": [],
    "lastUpdated": null,
    "howToBird": null
  },
  {
    "locId": "L4349776",
    "name": "Gabriel Richard Park",
    "lat": 42.3471757,
    "lng": -82.9991905,
    "numSpecies": 103,
    "latestObs": "2026-03-17 12:56",
    "knowledge": null,
    "parking": null,
    "hours": null,
    "fee": null,
    "features": [],
    "habitats": [],
    "tips": [],
    "links": [],
    "lastUpdated": null,
    "howToBird": null
  },
  {
    "locId": "L57349828",
    "name": "Goudy Park",
    "lat": 42.2842558,
    "lng": -83.38257,
    "numSpecies": 12,
    "latestObs": "2026-03-07 15:30",
    "knowledge": null,
    "parking": null,
    "hours": null,
    "fee": null,
    "features": [],
    "habitats": [],
    "tips": [],
    "links": [],
    "lastUpdated": null,
    "howToBird": null
  },
  {
    "locId": "L818015",
    "name": "Grace Lake (Visteon Pond)",
    "lat": 42.2386218,
    "lng": -83.4312057,
    "numSpecies": 142,
    "latestObs": "2026-03-14 10:00",
    "knowledge": null,
    "parking": null,
    "hours": null,
    "fee": null,
    "features": [],
    "habitats": [],
    "tips": [],
    "links": [],
    "lastUpdated": null,
    "howToBird": null
  },
  {
    "locId": "L10095407",
    "name": "Grand Circus Park",
    "lat": 42.336854,
    "lng": -83.050106,
    "numSpecies": 64,
    "latestObs": "2026-01-01 11:43",
    "knowledge": null,
    "parking": null,
    "hours": null,
    "fee": null,
    "features": [],
    "habitats": [],
    "tips": [],
    "links": [],
    "lastUpdated": null,
    "howToBird": null
  },
  {
    "locId": "L27625421",
    "name": "Grand Lawn Cemetery",
    "lat": 42.4187441,
    "lng": -83.2733524,
    "numSpecies": 19,
    "latestObs": "2025-05-11 19:19",
    "knowledge": null,
    "parking": null,
    "hours": null,
    "fee": null,
    "features": [],
    "habitats": [],
    "tips": [],
    "links": [],
    "lastUpdated": null,
    "howToBird": null
  },
  {
    "locId": "L1136228",
    "name": "Greenfield Village (Dearborn)",
    "lat": 42.3053087,
    "lng": -83.2210493,
    "numSpecies": 147,
    "latestObs": "2025-10-31 09:52",
    "knowledge": null,
    "parking": null,
    "hours": null,
    "fee": null,
    "features": [],
    "habitats": [],
    "tips": [],
    "links": [],
    "lastUpdated": null,
    "howToBird": null
  },
  {
    "locId": "L23863689",
    "name": "Greenmead Historical Park",
    "lat": 42.4359169,
    "lng": -83.4169491,
    "numSpecies": 5,
    "latestObs": "2023-04-27 12:24",
    "knowledge": null,
    "parking": null,
    "hours": null,
    "fee": null,
    "features": [],
    "habitats": [],
    "tips": [],
    "links": [],
    "lastUpdated": null,
    "howToBird": null
  },
  {
    "locId": "L2791434",
    "name": "Grosse Ile Parkway",
    "lat": 42.1271611,
    "lng": -83.1744111,
    "numSpecies": 59,
    "latestObs": "2026-01-31 14:20",
    "knowledge": null,
    "parking": null,
    "hours": null,
    "fee": null,
    "features": [],
    "habitats": [],
    "tips": [],
    "links": [],
    "lastUpdated": null,
    "howToBird": null
  },
  {
    "locId": "L5409915",
    "name": "Grosse Ile Wildlife Sanctuary",
    "lat": 42.1638036,
    "lng": -83.1495678,
    "numSpecies": 106,
    "latestObs": "2026-02-08 15:18",
    "knowledge": null,
    "parking": null,
    "hours": null,
    "fee": null,
    "features": [],
    "habitats": [],
    "tips": [],
    "links": [],
    "lastUpdated": null,
    "howToBird": null
  },
  {
    "locId": "L12894806",
    "name": "Grosse Isle Municipal Airport",
    "lat": 42.1061263,
    "lng": -83.1631336,
    "numSpecies": 87,
    "latestObs": "2026-02-14 07:23",
    "knowledge": null,
    "parking": null,
    "hours": null,
    "fee": null,
    "features": [],
    "habitats": [],
    "tips": [],
    "links": [],
    "lastUpdated": null,
    "howToBird": null
  },
  {
    "locId": "L11106190",
    "name": "Haas Park",
    "lat": 42.1692899,
    "lng": -83.1771737,
    "numSpecies": 151,
    "latestObs": "2026-03-19 20:15",
    "knowledge": null,
    "parking": null,
    "hours": null,
    "fee": null,
    "features": [],
    "habitats": [],
    "tips": [],
    "links": [],
    "lastUpdated": null,
    "howToBird": null
  },
  {
    "locId": "L1490366",
    "name": "Halyard Dr. pond",
    "lat": 42.3823825,
    "lng": -83.5266206,
    "numSpecies": 52,
    "latestObs": "2026-01-11 16:15",
    "knowledge": null,
    "parking": null,
    "hours": null,
    "fee": null,
    "features": [],
    "habitats": [],
    "tips": [],
    "links": [],
    "lastUpdated": null,
    "howToBird": null
  },
  {
    "locId": "L9977489",
    "name": "Harmonie Park",
    "lat": 42.336219,
    "lng": -83.046195,
    "numSpecies": 89,
    "latestObs": "2026-03-18 10:19",
    "knowledge": null,
    "parking": null,
    "hours": null,
    "fee": null,
    "features": [],
    "habitats": [],
    "tips": [],
    "links": [],
    "lastUpdated": null,
    "howToBird": null
  },
  {
    "locId": "L10097306",
    "name": "Hart Plaza",
    "lat": 42.327173,
    "lng": -83.044044,
    "numSpecies": 82,
    "latestObs": "2026-03-17 10:32",
    "knowledge": null,
    "parking": null,
    "hours": null,
    "fee": null,
    "features": [],
    "habitats": [],
    "tips": [],
    "links": [],
    "lastUpdated": null,
    "howToBird": null
  },
  {
    "locId": "L19604500",
    "name": "Hennepin Marsh Gateway Preserve",
    "lat": 42.178005,
    "lng": -83.1512054,
    "numSpecies": 55,
    "latestObs": "2025-12-27 14:05",
    "knowledge": null,
    "parking": null,
    "hours": null,
    "fee": null,
    "features": [],
    "habitats": [],
    "tips": [],
    "links": [],
    "lastUpdated": null,
    "howToBird": null
  },
  {
    "locId": "L4681515",
    "name": "Henry Ford College",
    "lat": 42.3248964,
    "lng": -83.2410049,
    "numSpecies": 66,
    "latestObs": "2026-03-12 18:10",
    "knowledge": null,
    "parking": null,
    "hours": null,
    "fee": null,
    "features": [],
    "habitats": [],
    "tips": [],
    "links": [],
    "lastUpdated": null,
    "howToBird": null
  },
  {
    "locId": "L9339405",
    "name": "Henry Ford Village",
    "lat": 42.3266256,
    "lng": -83.1942809,
    "numSpecies": 28,
    "latestObs": "2026-03-18 13:10",
    "knowledge": null,
    "parking": null,
    "hours": null,
    "fee": null,
    "features": [],
    "habitats": [],
    "tips": [],
    "links": [],
    "lastUpdated": null,
    "howToBird": null
  },
  {
    "locId": "L16557692",
    "name": "Heritage Park",
    "lat": 42.2987839,
    "lng": -83.4924747,
    "numSpecies": 72,
    "latestObs": "2026-03-05 17:41",
    "knowledge": null,
    "parking": null,
    "hours": null,
    "fee": null,
    "features": [],
    "habitats": [],
    "tips": [],
    "links": [],
    "lastUpdated": null,
    "howToBird": null
  },
  {
    "locId": "L11055745",
    "name": "Heritage Park (Wayne co.)",
    "lat": 42.2156984,
    "lng": -83.2495591,
    "numSpecies": 110,
    "latestObs": "2026-03-08 15:05",
    "knowledge": null,
    "parking": null,
    "hours": null,
    "fee": null,
    "features": [],
    "habitats": [],
    "tips": [],
    "links": [],
    "lastUpdated": null,
    "howToBird": null
  },
  {
    "locId": "L2101641",
    "name": "Hines Park",
    "lat": 42.3396407,
    "lng": -83.2629991,
    "numSpecies": 124,
    "latestObs": "2025-10-29 17:21",
    "knowledge": null,
    "parking": null,
    "hours": null,
    "fee": null,
    "features": [],
    "habitats": [],
    "tips": [],
    "links": [],
    "lastUpdated": null,
    "howToBird": null
  },
  {
    "locId": "L1489470",
    "name": "Hines Park--Middlebelt Rd. ",
    "lat": 42.3434429,
    "lng": -83.32921,
    "numSpecies": 105,
    "latestObs": "2026-03-14 14:15",
    "knowledge": null,
    "parking": null,
    "hours": null,
    "fee": null,
    "features": [],
    "habitats": [],
    "tips": [],
    "links": [],
    "lastUpdated": null,
    "howToBird": null
  },
  {
    "locId": "L16709427",
    "name": "Historic Mill Race Village/Ford Field Park",
    "lat": 42.432111,
    "lng": -83.480527,
    "numSpecies": 48,
    "latestObs": "2025-08-09 14:45",
    "knowledge": null,
    "parking": null,
    "hours": null,
    "fee": null,
    "features": [],
    "habitats": [],
    "tips": [],
    "links": [],
    "lastUpdated": null,
    "howToBird": null
  },
  {
    "locId": "L46073709",
    "name": "Hix Park",
    "lat": 42.3353245,
    "lng": -83.4211533,
    "numSpecies": 4,
    "latestObs": "2025-05-26 13:00",
    "knowledge": null,
    "parking": null,
    "hours": null,
    "fee": null,
    "features": [],
    "habitats": [],
    "tips": [],
    "links": [],
    "lastUpdated": null,
    "howToBird": null
  },
  {
    "locId": "L3183904",
    "name": "Holliday Nature Preserve--Tonquish Trail",
    "lat": 42.3447635,
    "lng": -83.4039223,
    "numSpecies": 75,
    "latestObs": "2025-11-16 13:00",
    "knowledge": null,
    "parking": null,
    "hours": null,
    "fee": null,
    "features": [],
    "habitats": [],
    "tips": [],
    "links": [],
    "lastUpdated": null,
    "howToBird": null
  },
  {
    "locId": "L16762389",
    "name": "Humbug Marina",
    "lat": 42.098433,
    "lng": -83.1886654,
    "numSpecies": 83,
    "latestObs": "2026-02-13 13:17",
    "knowledge": null,
    "parking": null,
    "hours": null,
    "fee": null,
    "features": [],
    "habitats": [],
    "tips": [],
    "links": [],
    "lastUpdated": null,
    "howToBird": null
  },
  {
    "locId": "L35415786",
    "name": "Independence Park (Canton)",
    "lat": 42.2929432,
    "lng": -83.5276818,
    "numSpecies": 34,
    "latestObs": "2026-03-19 16:16",
    "knowledge": null,
    "parking": null,
    "hours": null,
    "fee": null,
    "features": [],
    "habitats": [],
    "tips": [],
    "links": [],
    "lastUpdated": null,
    "howToBird": null
  },
  {
    "locId": "L13348954",
    "name": "Inkster Park",
    "lat": 42.2985156,
    "lng": -83.3100921,
    "numSpecies": 89,
    "latestObs": "2025-05-29 16:31",
    "knowledge": null,
    "parking": null,
    "hours": null,
    "fee": null,
    "features": [],
    "habitats": [],
    "tips": [],
    "links": [],
    "lastUpdated": null,
    "howToBird": null
  },
  {
    "locId": "L18197729",
    "name": "John Riel Memorial Park",
    "lat": 42.2687825,
    "lng": -83.2052565,
    "numSpecies": 67,
    "latestObs": "2025-05-08 09:05",
    "knowledge": null,
    "parking": null,
    "hours": null,
    "fee": null,
    "features": [],
    "habitats": [],
    "tips": [],
    "links": [],
    "lastUpdated": null,
    "howToBird": null
  },
  {
    "locId": "L3051263",
    "name": "Kingswood Park",
    "lat": 42.1598247,
    "lng": -83.194887,
    "numSpecies": 12,
    "latestObs": "2023-04-08 07:59",
    "knowledge": null,
    "parking": null,
    "hours": null,
    "fee": null,
    "features": [],
    "habitats": [],
    "tips": [],
    "links": [],
    "lastUpdated": null,
    "howToBird": null
  },
  {
    "locId": "L18845656",
    "name": "Lafayette Greens",
    "lat": 42.331484,
    "lng": -83.049407,
    "numSpecies": 53,
    "latestObs": "2026-02-04 14:46",
    "knowledge": null,
    "parking": null,
    "hours": null,
    "fee": null,
    "features": [],
    "habitats": [],
    "tips": [],
    "links": [],
    "lastUpdated": null,
    "howToBird": null
  },
  {
    "locId": "L139835",
    "name": "Lake Erie Metropark",
    "lat": 42.0691986,
    "lng": -83.1941986,
    "numSpecies": 276,
    "latestObs": "2026-03-21 18:06",
    "knowledge": null,
    "parking": null,
    "hours": null,
    "fee": null,
    "features": [],
    "habitats": [],
    "tips": [],
    "links": [],
    "lastUpdated": null,
    "howToBird": null
  },
  {
    "locId": "L1003279",
    "name": "Lake Erie Metropark--Detroit River Hawk Watch",
    "lat": 42.0796233,
    "lng": -83.1939483,
    "numSpecies": 230,
    "latestObs": "2026-03-15 16:09",
    "knowledge": null,
    "parking": null,
    "hours": null,
    "fee": null,
    "features": [],
    "habitats": [],
    "tips": [],
    "links": [],
    "lastUpdated": null,
    "howToBird": null
  },
  {
    "locId": "L23611019",
    "name": "Lakes of Taylor Golf Club",
    "lat": 42.2073622,
    "lng": -83.2803886,
    "numSpecies": 64,
    "latestObs": "2026-03-12 12:49",
    "knowledge": null,
    "parking": null,
    "hours": null,
    "fee": null,
    "features": [],
    "habitats": [],
    "tips": [],
    "links": [],
    "lastUpdated": null,
    "howToBird": null
  },
  {
    "locId": "L16686212",
    "name": "Leeann Park",
    "lat": 42.3308375,
    "lng": -83.471034,
    "numSpecies": 112,
    "latestObs": "2026-03-20 16:24",
    "knowledge": null,
    "parking": null,
    "hours": null,
    "fee": null,
    "features": [],
    "habitats": [],
    "tips": [],
    "links": [],
    "lastUpdated": null,
    "howToBird": null
  },
  {
    "locId": "L14251551",
    "name": "Levagood Park",
    "lat": 42.3190713,
    "lng": -83.2811706,
    "numSpecies": 40,
    "latestObs": "2024-05-30 11:00",
    "knowledge": null,
    "parking": null,
    "hours": null,
    "fee": null,
    "features": [],
    "habitats": [],
    "tips": [],
    "links": [],
    "lastUpdated": null,
    "howToBird": null
  },
  {
    "locId": "L2156802",
    "name": "Levan Knoll",
    "lat": 42.3606806,
    "lng": -83.4001493,
    "numSpecies": 95,
    "latestObs": "2026-03-20 10:23",
    "knowledge": null,
    "parking": null,
    "hours": null,
    "fee": null,
    "features": [],
    "habitats": [],
    "tips": [],
    "links": [],
    "lastUpdated": null,
    "howToBird": null
  },
  {
    "locId": "L15212864",
    "name": "Lower Constitution Park",
    "lat": 42.1201482,
    "lng": -83.2195233,
    "numSpecies": 55,
    "latestObs": "2023-04-13 08:23",
    "knowledge": null,
    "parking": null,
    "hours": null,
    "fee": null,
    "features": [],
    "habitats": [],
    "tips": [],
    "links": [],
    "lastUpdated": null,
    "howToBird": null
  },
  {
    "locId": "L422358",
    "name": "Lower Huron Metropark",
    "lat": 42.1886558,
    "lng": -83.4267426,
    "numSpecies": 184,
    "latestObs": "2026-03-19 07:48",
    "knowledge": null,
    "parking": null,
    "hours": null,
    "fee": null,
    "features": [],
    "habitats": [],
    "tips": [],
    "links": [],
    "lastUpdated": null,
    "howToBird": null
  },
  {
    "locId": "L10714949",
    "name": "Lower River Rouge trails",
    "lat": 42.3109663,
    "lng": -83.2331393,
    "numSpecies": 106,
    "latestObs": "2026-03-21 17:21",
    "knowledge": null,
    "parking": null,
    "hours": null,
    "fee": null,
    "features": [],
    "habitats": [],
    "tips": [],
    "links": [],
    "lastUpdated": null,
    "howToBird": null
  },
  {
    "locId": "L47868929",
    "name": "Maheras-Gentry Park",
    "lat": 42.3558107,
    "lng": -82.9495853,
    "numSpecies": 114,
    "latestObs": "2026-03-17 13:28",
    "knowledge": null,
    "parking": null,
    "hours": null,
    "fee": null,
    "features": [],
    "habitats": [],
    "tips": [],
    "links": [],
    "lastUpdated": null,
    "howToBird": null
  },
  {
    "locId": "L14848504",
    "name": "Mathew C. Patterson Park",
    "lat": 42.3739789,
    "lng": -82.9203865,
    "numSpecies": 136,
    "latestObs": "2026-03-10 18:30",
    "knowledge": null,
    "parking": null,
    "hours": null,
    "fee": null,
    "features": [],
    "habitats": [],
    "tips": [],
    "links": [],
    "lastUpdated": null,
    "howToBird": null
  },
  {
    "locId": "L298547",
    "name": "Maybury SP",
    "lat": 42.4296,
    "lng": -83.5337186,
    "numSpecies": 194,
    "latestObs": "2026-03-21 20:23",
    "knowledge": null,
    "parking": null,
    "hours": null,
    "fee": null,
    "features": [],
    "habitats": [],
    "tips": [],
    "links": [],
    "lastUpdated": null,
    "howToBird": null
  },
  {
    "locId": "L16516417",
    "name": "Meridian Woods and Trails",
    "lat": 42.113039,
    "lng": -83.156486,
    "numSpecies": 86,
    "latestObs": "2026-03-14 16:50",
    "knowledge": null,
    "parking": null,
    "hours": null,
    "fee": null,
    "features": [],
    "habitats": [],
    "tips": [],
    "links": [],
    "lastUpdated": null,
    "howToBird": null
  },
  {
    "locId": "L12590757",
    "name": "Meyer Ellias Park",
    "lat": 42.1522766,
    "lng": -83.1740149,
    "numSpecies": 132,
    "latestObs": "2026-02-14 07:34",
    "knowledge": null,
    "parking": null,
    "hours": null,
    "fee": null,
    "features": [],
    "habitats": [],
    "tips": [],
    "links": [],
    "lastUpdated": null,
    "howToBird": null
  },
  {
    "locId": "L57349844",
    "name": "Mill Trail Park",
    "lat": 42.28375,
    "lng": -83.38076,
    "numSpecies": 16,
    "latestObs": "2026-03-07 14:40",
    "knowledge": null,
    "parking": null,
    "hours": null,
    "fee": null,
    "features": [],
    "habitats": [],
    "tips": [],
    "links": [],
    "lastUpdated": null,
    "howToBird": null
  },
  {
    "locId": "L17218977",
    "name": "Miller Woods",
    "lat": 42.3646957,
    "lng": -83.5250616,
    "numSpecies": 59,
    "latestObs": "2026-03-21 12:15",
    "knowledge": null,
    "parking": null,
    "hours": null,
    "fee": null,
    "features": [],
    "habitats": [],
    "tips": [],
    "links": [],
    "lastUpdated": null,
    "howToBird": null
  },
  {
    "locId": "L10052263",
    "name": "Mt. Elliott Cemetery",
    "lat": 42.3506034,
    "lng": -83.0148257,
    "numSpecies": 50,
    "latestObs": "2023-05-17 15:00",
    "knowledge": null,
    "parking": null,
    "hours": null,
    "fee": null,
    "features": [],
    "habitats": [],
    "tips": [],
    "links": [],
    "lastUpdated": null,
    "howToBird": null
  },
  {
    "locId": "L10748774",
    "name": "Naccarato Parkway Wetlands",
    "lat": 42.3257897,
    "lng": -83.4551277,
    "numSpecies": 59,
    "latestObs": "2026-03-11 17:06",
    "knowledge": null,
    "parking": null,
    "hours": null,
    "fee": null,
    "features": [],
    "habitats": [],
    "tips": [],
    "links": [],
    "lastUpdated": null,
    "howToBird": null
  },
  {
    "locId": "L1568738",
    "name": "Nankin Lake",
    "lat": 42.3552038,
    "lng": -83.3738483,
    "numSpecies": 171,
    "latestObs": "2026-03-16 15:40",
    "knowledge": null,
    "parking": null,
    "hours": null,
    "fee": null,
    "features": [],
    "habitats": [],
    "tips": [],
    "links": [],
    "lastUpdated": null,
    "howToBird": null
  },
  {
    "locId": "L2172582",
    "name": "Nankin Mills Interpretive Center",
    "lat": 42.3487615,
    "lng": -83.3726478,
    "numSpecies": 101,
    "latestObs": "2026-01-03 12:10",
    "knowledge": null,
    "parking": null,
    "hours": null,
    "fee": null,
    "features": [],
    "habitats": [],
    "tips": [],
    "links": [],
    "lastUpdated": null,
    "howToBird": null
  },
  {
    "locId": "L39168059",
    "name": "Neff Park",
    "lat": 42.38342,
    "lng": -82.906224,
    "numSpecies": 36,
    "latestObs": "2026-02-14 14:09",
    "knowledge": null,
    "parking": null,
    "hours": null,
    "fee": null,
    "features": [],
    "habitats": [],
    "tips": [],
    "links": [],
    "lastUpdated": null,
    "howToBird": null
  },
  {
    "locId": "L11324322",
    "name": "New Points Church",
    "lat": 42.20433,
    "lng": -83.221103,
    "numSpecies": 18,
    "latestObs": "2023-04-26 10:42",
    "knowledge": null,
    "parking": null,
    "hours": null,
    "fee": null,
    "features": [],
    "habitats": [],
    "tips": [],
    "links": [],
    "lastUpdated": null,
    "howToBird": null
  },
  {
    "locId": "L298485",
    "name": "Newburgh Lake",
    "lat": 42.3659356,
    "lng": -83.4245812,
    "numSpecies": 154,
    "latestObs": "2026-03-20 19:15",
    "knowledge": null,
    "parking": null,
    "hours": null,
    "fee": null,
    "features": [],
    "habitats": [],
    "tips": [],
    "links": [],
    "lastUpdated": null,
    "howToBird": null
  },
  {
    "locId": "L20175816",
    "name": "Northville Recreation Area",
    "lat": 42.4216498,
    "lng": -83.4774874,
    "numSpecies": 29,
    "latestObs": "2026-02-01 11:16",
    "knowledge": null,
    "parking": null,
    "hours": null,
    "fee": null,
    "features": [],
    "habitats": [],
    "tips": [],
    "links": [],
    "lastUpdated": null,
    "howToBird": null
  },
  {
    "locId": "L139837",
    "name": "Oakwoods Metropark",
    "lat": 42.1063004,
    "lng": -83.3179016,
    "numSpecies": 230,
    "latestObs": "2026-03-20 20:15",
    "knowledge": null,
    "parking": null,
    "hours": null,
    "fee": null,
    "features": [],
    "habitats": [],
    "tips": [],
    "links": [],
    "lastUpdated": null,
    "howToBird": null
  },
  {
    "locId": "L4635549",
    "name": "Palmer Park",
    "lat": 42.4277014,
    "lng": -83.1189966,
    "numSpecies": 124,
    "latestObs": "2026-01-19 10:16",
    "knowledge": null,
    "parking": null,
    "hours": null,
    "fee": null,
    "features": [],
    "habitats": [],
    "tips": [],
    "links": [],
    "lastUpdated": null,
    "howToBird": null
  },
  {
    "locId": "L31394298",
    "name": "Parkland Park",
    "lat": 42.339394,
    "lng": -83.251718,
    "numSpecies": 72,
    "latestObs": "2026-03-07 13:59",
    "knowledge": null,
    "parking": null,
    "hours": null,
    "fee": null,
    "features": [],
    "habitats": [],
    "tips": [],
    "links": [],
    "lastUpdated": null,
    "howToBird": null
  },
  {
    "locId": "L9091017",
    "name": "Parkview Memorial Cemetery",
    "lat": 42.3933602,
    "lng": -83.380508,
    "numSpecies": 42,
    "latestObs": "2026-01-27 15:42",
    "knowledge": null,
    "parking": null,
    "hours": null,
    "fee": null,
    "features": [],
    "habitats": [],
    "tips": [],
    "links": [],
    "lastUpdated": null,
    "howToBird": null
  },
  {
    "locId": "L21782533",
    "name": "Pheasant Run Golf Club",
    "lat": 42.2946662,
    "lng": -83.4984604,
    "numSpecies": 69,
    "latestObs": "2026-03-12 10:42",
    "knowledge": null,
    "parking": null,
    "hours": null,
    "fee": null,
    "features": [],
    "habitats": [],
    "tips": [],
    "links": [],
    "lastUpdated": null,
    "howToBird": null
  },
  {
    "locId": "L3481305",
    "name": "Phoenix Lake",
    "lat": 42.3968324,
    "lng": -83.4672546,
    "numSpecies": 107,
    "latestObs": "2026-03-21 10:31",
    "knowledge": null,
    "parking": null,
    "hours": null,
    "fee": null,
    "features": [],
    "habitats": [],
    "tips": [],
    "links": [],
    "lastUpdated": null,
    "howToBird": null
  },
  {
    "locId": "L2487619",
    "name": "Pier Park",
    "lat": 42.4068544,
    "lng": -82.8857088,
    "numSpecies": 111,
    "latestObs": "2026-02-26 12:44",
    "knowledge": null,
    "parking": null,
    "hours": null,
    "fee": null,
    "features": [],
    "habitats": [],
    "tips": [],
    "links": [],
    "lastUpdated": null,
    "howToBird": null
  },
  {
    "locId": "L2107059",
    "name": "Plymouth Riverside Park",
    "lat": 42.3732566,
    "lng": -83.4529638,
    "numSpecies": 109,
    "latestObs": "2026-01-03 10:51",
    "knowledge": null,
    "parking": null,
    "hours": null,
    "fee": null,
    "features": [],
    "habitats": [],
    "tips": [],
    "links": [],
    "lastUpdated": null,
    "howToBird": null
  },
  {
    "locId": "L1276764",
    "name": "Plymouth Twp. Park",
    "lat": 42.366519,
    "lng": -83.5002351,
    "numSpecies": 104,
    "latestObs": "2026-03-21 23:20",
    "knowledge": null,
    "parking": null,
    "hours": null,
    "fee": null,
    "features": [],
    "habitats": [],
    "tips": [],
    "links": [],
    "lastUpdated": null,
    "howToBird": null
  },
  {
    "locId": "L786793",
    "name": "Porath Park",
    "lat": 42.3239049,
    "lng": -83.1600237,
    "numSpecies": 45,
    "latestObs": "2026-03-18 12:46",
    "knowledge": null,
    "parking": null,
    "hours": null,
    "fee": null,
    "features": [],
    "habitats": [],
    "tips": [],
    "links": [],
    "lastUpdated": null,
    "howToBird": null
  },
  {
    "locId": "L10034456",
    "name": "Ralph C. Wilson Centennial Park (formerly West Riverfront Park)",
    "lat": 42.3218318,
    "lng": -83.0631118,
    "numSpecies": 72,
    "latestObs": "2026-02-15 11:21",
    "knowledge": null,
    "parking": null,
    "hours": null,
    "fee": null,
    "features": [],
    "habitats": [],
    "tips": [],
    "links": [],
    "lastUpdated": null,
    "howToBird": null
  },
  {
    "locId": "L14792841",
    "name": "Ray Torres Lion's Park",
    "lat": 42.206688,
    "lng": -83.211726,
    "numSpecies": 106,
    "latestObs": "2026-03-17 14:38",
    "knowledge": null,
    "parking": null,
    "hours": null,
    "fee": null,
    "features": [],
    "habitats": [],
    "tips": [],
    "links": [],
    "lastUpdated": null,
    "howToBird": null
  },
  {
    "locId": "L2914899",
    "name": "River Rouge Park",
    "lat": 42.3685641,
    "lng": -83.2523918,
    "numSpecies": 170,
    "latestObs": "2026-03-18 07:18",
    "knowledge": null,
    "parking": null,
    "hours": null,
    "fee": null,
    "features": [],
    "habitats": [],
    "tips": [],
    "links": [],
    "lastUpdated": null,
    "howToBird": null
  },
  {
    "locId": "L1066374",
    "name": "Riverfront Park and Harbin Rd. (Wayne Co.)",
    "lat": 42.0434765,
    "lng": -83.2128471,
    "numSpecies": 149,
    "latestObs": "2026-03-21 09:13",
    "knowledge": null,
    "parking": null,
    "hours": null,
    "fee": null,
    "features": [],
    "habitats": [],
    "tips": [],
    "links": [],
    "lastUpdated": null,
    "howToBird": null
  },
  {
    "locId": "L9163174",
    "name": "Riverfront-Lakewood East Park",
    "lat": 42.358096,
    "lng": -82.932258,
    "numSpecies": 137,
    "latestObs": "2026-03-19 16:06",
    "knowledge": null,
    "parking": null,
    "hours": null,
    "fee": null,
    "features": [],
    "habitats": [],
    "tips": [],
    "links": [],
    "lastUpdated": null,
    "howToBird": null
  },
  {
    "locId": "L18467771",
    "name": "Riverview Boat Launch (restricted access)",
    "lat": 42.1744501,
    "lng": -83.1651904,
    "numSpecies": 88,
    "latestObs": "2026-03-16 13:33",
    "knowledge": null,
    "parking": null,
    "hours": null,
    "fee": null,
    "features": [],
    "habitats": [],
    "tips": [],
    "links": [],
    "lastUpdated": null,
    "howToBird": null
  },
  {
    "locId": "L27012526",
    "name": "Riverview Highlands Golf Course/Riverview Land Preserve",
    "lat": 42.1677056,
    "lng": -83.2051492,
    "numSpecies": 43,
    "latestObs": "2024-11-15 13:41",
    "knowledge": null,
    "parking": null,
    "hours": null,
    "fee": null,
    "features": [],
    "habitats": [],
    "tips": [],
    "links": [],
    "lastUpdated": null,
    "howToBird": null
  },
  {
    "locId": "L23249974",
    "name": "Roosevelt Park",
    "lat": 42.33032,
    "lng": -83.077281,
    "numSpecies": 53,
    "latestObs": "2026-02-16 13:42",
    "knowledge": null,
    "parking": null,
    "hours": null,
    "fee": null,
    "features": [],
    "habitats": [],
    "tips": [],
    "links": [],
    "lastUpdated": null,
    "howToBird": null
  },
  {
    "locId": "L18467809",
    "name": "Rotary Park",
    "lat": 42.1468205,
    "lng": -83.1733424,
    "numSpecies": 85,
    "latestObs": "2026-02-13 14:21",
    "knowledge": null,
    "parking": null,
    "hours": null,
    "fee": null,
    "features": [],
    "habitats": [],
    "tips": [],
    "links": [],
    "lastUpdated": null,
    "howToBird": null
  },
  {
    "locId": "L5680793",
    "name": "Rotary Park",
    "lat": 42.4173104,
    "lng": -83.3615541,
    "numSpecies": 69,
    "latestObs": "2025-10-11 11:04",
    "knowledge": null,
    "parking": null,
    "hours": null,
    "fee": null,
    "features": [],
    "habitats": [],
    "tips": [],
    "links": [],
    "lastUpdated": null,
    "howToBird": null
  },
  {
    "locId": "L276899",
    "name": "Rouge Plant (Dearborn)",
    "lat": 42.2957705,
    "lng": -83.1531916,
    "numSpecies": 86,
    "latestObs": "2026-02-26 17:00",
    "knowledge": null,
    "parking": null,
    "hours": null,
    "fee": null,
    "features": [],
    "habitats": [],
    "tips": [],
    "links": [],
    "lastUpdated": null,
    "howToBird": null
  },
  {
    "locId": "L515183",
    "name": "Rouge River Channel--Dearborn",
    "lat": 42.3065465,
    "lng": -83.2087541,
    "numSpecies": 161,
    "latestObs": "2026-03-14 18:36",
    "knowledge": null,
    "parking": null,
    "hours": null,
    "fee": null,
    "features": [],
    "habitats": [],
    "tips": [],
    "links": [],
    "lastUpdated": null,
    "howToBird": null
  },
  {
    "locId": "L10201628",
    "name": "Sacred Heart Major Seminary",
    "lat": 42.3740924,
    "lng": -83.1111483,
    "numSpecies": 36,
    "latestObs": "2025-01-10 13:46",
    "knowledge": null,
    "parking": null,
    "hours": null,
    "fee": null,
    "features": [],
    "habitats": [],
    "tips": [],
    "links": [],
    "lastUpdated": null,
    "howToBird": null
  },
  {
    "locId": "L7255864",
    "name": "Schoolcraft College",
    "lat": 42.4203994,
    "lng": -83.4292316,
    "numSpecies": 39,
    "latestObs": "2026-01-11 14:57",
    "knowledge": null,
    "parking": null,
    "hours": null,
    "fee": null,
    "features": [],
    "habitats": [],
    "tips": [],
    "links": [],
    "lastUpdated": null,
    "howToBird": null
  },
  {
    "locId": "L5925351",
    "name": "Sibley Prairie Nature Preserve--Beech-Daly Rd. site",
    "lat": 42.1398188,
    "lng": -83.2913554,
    "numSpecies": 63,
    "latestObs": "2026-03-06 17:14",
    "knowledge": null,
    "parking": null,
    "hours": null,
    "fee": null,
    "features": [],
    "habitats": [],
    "tips": [],
    "links": [],
    "lastUpdated": null,
    "howToBird": null
  },
  {
    "locId": "L823563",
    "name": "Snow Woods (Dearborn)",
    "lat": 42.2924214,
    "lng": -83.2233238,
    "numSpecies": 78,
    "latestObs": "2026-01-01 10:43",
    "knowledge": null,
    "parking": null,
    "hours": null,
    "fee": null,
    "features": [],
    "habitats": [],
    "tips": [],
    "links": [],
    "lastUpdated": null,
    "howToBird": null
  },
  {
    "locId": "L3726306",
    "name": "Southgate Nature Center",
    "lat": 42.191097,
    "lng": -83.213568,
    "numSpecies": 97,
    "latestObs": "2026-03-10 19:35",
    "knowledge": null,
    "parking": null,
    "hours": null,
    "fee": null,
    "features": [],
    "habitats": [],
    "tips": [],
    "links": [],
    "lastUpdated": null,
    "howToBird": null
  },
  {
    "locId": "L18172997",
    "name": "Springbrook RA",
    "lat": 42.3887978,
    "lng": -83.4674907,
    "numSpecies": 28,
    "latestObs": "2025-08-24 16:51",
    "knowledge": null,
    "parking": null,
    "hours": null,
    "fee": null,
    "features": [],
    "habitats": [],
    "tips": [],
    "links": [],
    "lastUpdated": null,
    "howToBird": null
  },
  {
    "locId": "L5069392",
    "name": "Stony Island",
    "lat": 42.1244981,
    "lng": -83.1317854,
    "numSpecies": 50,
    "latestObs": "2025-02-22 10:15",
    "knowledge": null,
    "parking": null,
    "hours": null,
    "fee": null,
    "features": [],
    "habitats": [],
    "tips": [],
    "links": [],
    "lastUpdated": null,
    "howToBird": null
  },
  {
    "locId": "L27660400",
    "name": "Sunrise Park",
    "lat": 42.1261464,
    "lng": -83.140943,
    "numSpecies": 94,
    "latestObs": "2026-02-09 09:42",
    "knowledge": null,
    "parking": null,
    "hours": null,
    "fee": null,
    "features": [],
    "habitats": [],
    "tips": [],
    "links": [],
    "lastUpdated": null,
    "howToBird": null
  },
  {
    "locId": "L14038165",
    "name": "Thayer's Corner Park",
    "lat": 42.4107519,
    "lng": -83.548708,
    "numSpecies": 64,
    "latestObs": "2025-10-02 16:00",
    "knowledge": null,
    "parking": null,
    "hours": null,
    "fee": null,
    "features": [],
    "habitats": [],
    "tips": [],
    "links": [],
    "lastUpdated": null,
    "howToBird": null
  },
  {
    "locId": "L28235119",
    "name": "The Dr. Bruce Jones Preserve",
    "lat": 42.1719082,
    "lng": -83.1564162,
    "numSpecies": 74,
    "latestObs": "2025-12-27 13:44",
    "knowledge": null,
    "parking": null,
    "hours": null,
    "fee": null,
    "features": [],
    "habitats": [],
    "tips": [],
    "links": [],
    "lastUpdated": null,
    "howToBird": null
  },
  {
    "locId": "L511955",
    "name": "UM Dearborn/Rouge River Bird Observatory",
    "lat": 42.3193799,
    "lng": -83.2382944,
    "numSpecies": 217,
    "latestObs": "2026-03-21 10:01",
    "knowledge": null,
    "parking": null,
    "hours": null,
    "fee": null,
    "features": [],
    "habitats": [],
    "tips": [],
    "links": [],
    "lastUpdated": null,
    "howToBird": null
  },
  {
    "locId": "L12432328",
    "name": "Veterans Park",
    "lat": 42.3899869,
    "lng": -83.0524883,
    "numSpecies": 39,
    "latestObs": "2024-09-01 09:40",
    "knowledge": null,
    "parking": null,
    "hours": null,
    "fee": null,
    "features": [],
    "habitats": [],
    "tips": [],
    "links": [],
    "lastUpdated": null,
    "howToBird": null
  },
  {
    "locId": "L20956695",
    "name": "Victory Toyota wetlands",
    "lat": 42.2705341,
    "lng": -83.4976348,
    "numSpecies": 50,
    "latestObs": "2026-01-03 14:15",
    "knowledge": null,
    "parking": null,
    "hours": null,
    "fee": null,
    "features": [],
    "habitats": [],
    "tips": [],
    "links": [],
    "lastUpdated": null,
    "howToBird": null
  },
  {
    "locId": "L2094387",
    "name": "Wallaceville Park",
    "lat": 42.34719,
    "lng": -83.2847786,
    "numSpecies": 35,
    "latestObs": "2025-10-16 09:40",
    "knowledge": null,
    "parking": null,
    "hours": null,
    "fee": null,
    "features": [],
    "habitats": [],
    "tips": [],
    "links": [],
    "lastUpdated": null,
    "howToBird": null
  },
  {
    "locId": "L15440615",
    "name": "Waltz Green Acres Sod Farm (historic)",
    "lat": 42.1081628,
    "lng": -83.3961022,
    "numSpecies": 66,
    "latestObs": "2026-01-12 13:11",
    "knowledge": null,
    "parking": null,
    "hours": null,
    "fee": null,
    "features": [],
    "habitats": [],
    "tips": [],
    "links": [],
    "lastUpdated": null,
    "howToBird": null
  },
  {
    "locId": "L5693267",
    "name": "Warren Wetlands Nature Area",
    "lat": 42.3370236,
    "lng": -83.4801775,
    "numSpecies": 45,
    "latestObs": "2026-01-03 15:24",
    "knowledge": null,
    "parking": null,
    "hours": null,
    "fee": null,
    "features": [],
    "habitats": [],
    "tips": [],
    "links": [],
    "lastUpdated": null,
    "howToBird": null
  },
  {
    "locId": "L57331724",
    "name": "Washington Park",
    "lat": 42.2837461,
    "lng": -83.3861018,
    "numSpecies": 20,
    "latestObs": "2026-03-07 15:35",
    "knowledge": null,
    "parking": null,
    "hours": null,
    "fee": null,
    "features": [],
    "habitats": [],
    "tips": [],
    "links": [],
    "lastUpdated": null,
    "howToBird": null
  },
  {
    "locId": "L16126787",
    "name": "Waterford Bend RA",
    "lat": 42.4117024,
    "lng": -83.4705162,
    "numSpecies": 60,
    "latestObs": "2026-03-13 09:45",
    "knowledge": null,
    "parking": null,
    "hours": null,
    "fee": null,
    "features": [],
    "habitats": [],
    "tips": [],
    "links": [],
    "lastUpdated": null,
    "howToBird": null
  },
  {
    "locId": "L26970010",
    "name": "Waterford Pond (east public access)",
    "lat": 42.414728,
    "lng": -83.4667008,
    "numSpecies": 95,
    "latestObs": "2026-03-19 18:00",
    "knowledge": null,
    "parking": null,
    "hours": null,
    "fee": null,
    "features": [],
    "habitats": [],
    "tips": [],
    "links": [],
    "lastUpdated": null,
    "howToBird": null
  },
  {
    "locId": "L22561717",
    "name": "Wayne County Community College--Ted Scott Campus",
    "lat": 42.2323122,
    "lng": -83.4394799,
    "numSpecies": 77,
    "latestObs": "2026-02-13 11:42",
    "knowledge": null,
    "parking": null,
    "hours": null,
    "fee": null,
    "features": [],
    "habitats": [],
    "tips": [],
    "links": [],
    "lastUpdated": null,
    "howToBird": null
  },
  {
    "locId": "L8018429",
    "name": "Wayne State University campus",
    "lat": 42.3586414,
    "lng": -83.0707879,
    "numSpecies": 97,
    "latestObs": "2026-02-18 13:59",
    "knowledge": null,
    "parking": null,
    "hours": null,
    "fee": null,
    "features": [],
    "habitats": [],
    "tips": [],
    "links": [],
    "lastUpdated": null,
    "howToBird": null
  },
  {
    "locId": "L16976927",
    "name": "West Road Pocket Park",
    "lat": 42.140521,
    "lng": -83.17532,
    "numSpecies": 19,
    "latestObs": "2026-01-19 14:11",
    "knowledge": null,
    "parking": null,
    "hours": null,
    "fee": null,
    "features": [],
    "habitats": [],
    "tips": [],
    "links": [],
    "lastUpdated": null,
    "howToBird": null
  },
  {
    "locId": "L1825571",
    "name": "Westcroft Gardens",
    "lat": 42.1495714,
    "lng": -83.1644108,
    "numSpecies": 149,
    "latestObs": "2026-03-15 16:40",
    "knowledge": null,
    "parking": null,
    "hours": null,
    "fee": null,
    "features": [],
    "habitats": [],
    "tips": [],
    "links": [],
    "lastUpdated": null,
    "howToBird": null
  },
  {
    "locId": "L35470448",
    "name": "Wick Rd. GLWA Pond",
    "lat": 42.2388579,
    "lng": -83.3528536,
    "numSpecies": 85,
    "latestObs": "2026-03-17 10:08",
    "knowledge": null,
    "parking": null,
    "hours": null,
    "fee": null,
    "features": [],
    "habitats": [],
    "tips": [],
    "links": [],
    "lastUpdated": null,
    "howToBird": null
  },
  {
    "locId": "L2132642",
    "name": "Wilcox Lake",
    "lat": 42.3847869,
    "lng": -83.4609818,
    "numSpecies": 118,
    "latestObs": "2026-03-20 09:38",
    "knowledge": null,
    "parking": null,
    "hours": null,
    "fee": null,
    "features": [],
    "habitats": [],
    "tips": [],
    "links": [],
    "lastUpdated": null,
    "howToBird": null
  },
  {
    "locId": "L999164",
    "name": "William Milliken SP",
    "lat": 42.3321857,
    "lng": -83.0259132,
    "numSpecies": 139,
    "latestObs": "2026-03-21 20:14",
    "knowledge": null,
    "parking": null,
    "hours": null,
    "fee": null,
    "features": [],
    "habitats": [],
    "tips": [],
    "links": [],
    "lastUpdated": null,
    "howToBird": null
  },
  {
    "locId": "L38415837",
    "name": "William P. Faust Public Library",
    "lat": 42.3283006,
    "lng": -83.400696,
    "numSpecies": 22,
    "latestObs": "2026-02-28 12:09",
    "knowledge": null,
    "parking": null,
    "hours": null,
    "fee": null,
    "features": [],
    "habitats": [],
    "tips": [],
    "links": [],
    "lastUpdated": null,
    "howToBird": null
  },
  {
    "locId": "L792730",
    "name": "William P. Holliday Forest and Wildlife Preserve",
    "lat": 42.3410365,
    "lng": -83.42906,
    "numSpecies": 111,
    "latestObs": "2026-01-03 08:36",
    "knowledge": null,
    "parking": null,
    "hours": null,
    "fee": null,
    "features": [],
    "habitats": [],
    "tips": [],
    "links": [],
    "lastUpdated": null,
    "howToBird": null
  },
  {
    "locId": "L139838",
    "name": "Willow Metropark",
    "lat": 42.134201,
    "lng": -83.3716965,
    "numSpecies": 196,
    "latestObs": "2026-03-09 17:17",
    "knowledge": null,
    "parking": null,
    "hours": null,
    "fee": null,
    "features": [],
    "habitats": [],
    "tips": [],
    "links": [],
    "lastUpdated": null,
    "howToBird": null
  },
  {
    "locId": "L426624",
    "name": "Willow Run Airport (restricted access)",
    "lat": 42.232688,
    "lng": -83.5077989,
    "numSpecies": 177,
    "latestObs": "2026-03-20 18:34",
    "knowledge": null,
    "parking": null,
    "hours": null,
    "fee": null,
    "features": [],
    "habitats": [],
    "tips": [],
    "links": [],
    "lastUpdated": null,
    "howToBird": null
  },
  {
    "locId": "L39527724",
    "name": "Windmill Pointe Park",
    "lat": 42.3598405,
    "lng": -82.9287533,
    "numSpecies": 52,
    "latestObs": "2026-03-17 14:22",
    "knowledge": null,
    "parking": null,
    "hours": null,
    "fee": null,
    "features": [],
    "habitats": [],
    "tips": [],
    "links": [],
    "lastUpdated": null,
    "howToBird": null
  },
  {
    "locId": "L8585617",
    "name": "Woodlawn Cemetery",
    "lat": 42.441783,
    "lng": -83.1260791,
    "numSpecies": 108,
    "latestObs": "2026-03-15 16:19",
    "knowledge": null,
    "parking": null,
    "hours": null,
    "fee": null,
    "features": [],
    "habitats": [],
    "tips": [],
    "links": [],
    "lastUpdated": null,
    "howToBird": null
  },
  {
    "locId": "L13787395",
    "name": "Woodmere Cemetery",
    "lat": 42.2995842,
    "lng": -83.1373752,
    "numSpecies": 51,
    "latestObs": "2026-01-01 14:41",
    "knowledge": null,
    "parking": null,
    "hours": null,
    "fee": null,
    "features": [],
    "habitats": [],
    "tips": [],
    "links": [],
    "lastUpdated": null,
    "howToBird": null
  },
  {
    "locId": "L17034920",
    "name": "Wyandotte Boat Ramp",
    "lat": 42.226999,
    "lng": -83.146682,
    "numSpecies": 38,
    "latestObs": "2026-03-18 06:46",
    "knowledge": null,
    "parking": null,
    "hours": null,
    "fee": null,
    "features": [],
    "habitats": [],
    "tips": [],
    "links": [],
    "lastUpdated": null,
    "howToBird": null
  },
  {
    "locId": "L7407058",
    "name": "Young Patriots Park",
    "lat": 42.1723097,
    "lng": -83.196888,
    "numSpecies": 70,
    "latestObs": "2026-03-03 17:36",
    "knowledge": null,
    "parking": null,
    "hours": null,
    "fee": null,
    "features": [],
    "habitats": [],
    "tips": [],
    "links": [],
    "lastUpdated": null,
    "howToBird": null
  },
  {
    "locId": "L3766460",
    "name": "Zibiwes Nature Area",
    "lat": 42.3240001,
    "lng": -83.5288918,
    "numSpecies": 147,
    "latestObs": "2026-03-21 20:02",
    "knowledge": null,
    "parking": null,
    "hours": null,
    "fee": null,
    "features": [],
    "habitats": [],
    "tips": [],
    "links": [],
    "lastUpdated": null,
    "howToBird": null
  },
  {
    "locId": "L3670958",
    "name": "stakeout Black-bellied Whistling-Ducks, Michigan Heights Dr. (2015)",
    "lat": 42.1786069,
    "lng": -83.2933214,
    "numSpecies": 13,
    "latestObs": "2023-04-01 11:03",
    "knowledge": null,
    "parking": null,
    "hours": null,
    "fee": null,
    "features": [],
    "habitats": [],
    "tips": [],
    "links": [],
    "lastUpdated": null,
    "howToBird": null
  },
  {
    "locId": "L31959608",
    "name": "stakeout Spotted Towhee (2024), Inkster",
    "lat": 42.3086097,
    "lng": -83.328389,
    "numSpecies": 17,
    "latestObs": "2024-05-19 10:33",
    "knowledge": null,
    "parking": null,
    "hours": null,
    "fee": null,
    "features": [],
    "habitats": [],
    "tips": [],
    "links": [],
    "lastUpdated": null,
    "howToBird": null
  }
]