{
  "total_hotspots": 315,
  "generated_at": "2026-02-02T01:07:13.312658Z",
  "hotspots": [
    {
      "locality_id": "L320822",
      "name": "Nichols Arboretum",
      "file": "hotspots/L320822_nichols_arboretum.json",
      "total_checklists": 12539,
      "coordinates": {
        "latitude": 42.2813095,
        "longitude": -83.7221074
      }
    },
    {
      "locality_id": "L284571",
      "name": "Gallup Park",
      "file": "hotspots/L284571_gallup_park.json",
      "total_checklists": 5360,
      "coordinates": {
        "latitude": 42.273276,
        "longitude": -83.693397
      }
    },
    {
      "locality_id": "L492256",
      "name": "Matthaei Botanical Gardens",
      "file": "hotspots/L492256_matthaei_botanical_gardens.json",
      "total_checklists": 4859,
      "coordinates": {
        "latitude": 42.3007381,
        "longitude": -83.6628628
      }
    },
    {
      "locality_id": "L1084604",
      "name": "North Bay Park/Ford Lake Boardwalk",
      "file": "hotspots/L1084604_north_bay_park_ford_lake_boardwalk.json",
      "total_checklists": 4386,
      "coordinates": {
        "latitude": 42.2282671,
        "longitude": -83.6102566
      }
    },
    {
      "locality_id": "L828868",
      "name": "Vreeland Rd.",
      "file": "hotspots/L828868_vreeland_rd.json",
      "total_checklists": 4283,
      "coordinates": {
        "latitude": 42.2910722,
        "longitude": -83.5701871
      }
    },
    {
      "locality_id": "L818736",
      "name": "Mary Beth Doyle Park",
      "file": "hotspots/L818736_mary_beth_doyle_park.json",
      "total_checklists": 4143,
      "coordinates": {
        "latitude": 42.2411953,
        "longitude": -83.7111855
      }
    },
    {
      "locality_id": "L797059",
      "name": "Furstenberg Park",
      "file": "hotspots/L797059_furstenberg_park.json",
      "total_checklists": 3881,
      "coordinates": {
        "latitude": 42.2775628,
        "longitude": -83.7036753
      }
    },
    {
      "locality_id": "L210751",
      "name": "Dolph Nature Area",
      "file": "hotspots/L210751_dolph_nature_area.json",
      "total_checklists": 3703,
      "coordinates": {
        "latitude": 42.280502,
        "longitude": -83.7965012
      }
    },
    {
      "locality_id": "L1124964",
      "name": "Chelsea SGA--Four Mile Lake",
      "file": "hotspots/L1124964_chelsea_sga_four_mile_lake.json",
      "total_checklists": 3323,
      "coordinates": {
        "latitude": 42.3291717,
        "longitude": -83.9686775
      }
    },
    {
      "locality_id": "L284568",
      "name": "Barton Pond",
      "file": "hotspots/L284568_barton_pond.json",
      "total_checklists": 2774,
      "coordinates": {
        "latitude": 42.3126558,
        "longitude": -83.7561071
      }
    },
    {
      "locality_id": "L389647",
      "name": "South Pond",
      "file": "hotspots/L389647_south_pond.json",
      "total_checklists": 2471,
      "coordinates": {
        "latitude": 42.2680362,
        "longitude": -83.6880541
      }
    },
    {
      "locality_id": "L459615",
      "name": "Independence Lake County Park",
      "file": "hotspots/L459615_independence_lake_county_park.json",
      "total_checklists": 2419,
      "coordinates": {
        "latitude": 42.4059513,
        "longitude": -83.7960634
      }
    },
    {
      "locality_id": "L1147171",
      "name": "Barton Nature Area",
      "file": "hotspots/L1147171_barton_nature_area.json",
      "total_checklists": 2403,
      "coordinates": {
        "latitude": 42.3044517,
        "longitude": -83.7555492
      }
    },
    {
      "locality_id": "L685133",
      "name": "Thurston Pond",
      "file": "hotspots/L685133_thurston_pond.json",
      "total_checklists": 2386,
      "coordinates": {
        "latitude": 42.3092283,
        "longitude": -83.7003922
      }
    },
    {
      "locality_id": "L758491",
      "name": "Scio Church Rd. and Parker Rd. ponds",
      "file": "hotspots/L758491_scio_church_rd_and_parker_rd_ponds.json",
      "total_checklists": 2169,
      "coordinates": {
        "latitude": 42.2533109,
        "longitude": -83.8965432
      }
    },
    {
      "locality_id": "L512604",
      "name": "Trinkle Marsh",
      "file": "hotspots/L512604_trinkle_marsh.json",
      "total_checklists": 2142,
      "coordinates": {
        "latitude": 42.309387,
        "longitude": -83.9339161
      }
    },
    {
      "locality_id": "L284573",
      "name": "Superior Twp. Roads",
      "file": "hotspots/L284573_superior_twp_roads.json",
      "total_checklists": 2073,
      "coordinates": {
        "latitude": 42.2922212,
        "longitude": -83.6031482
      }
    },
    {
      "locality_id": "L188710",
      "name": "Hudson Mills Metropark",
      "file": "hotspots/L188710_hudson_mills_metropark.json",
      "total_checklists": 2040,
      "coordinates": {
        "latitude": 42.3831,
        "longitude": -83.91289
      }
    },
    {
      "locality_id": "L961963",
      "name": "Eberwhite Woods",
      "file": "hotspots/L961963_eberwhite_woods.json",
      "total_checklists": 1962,
      "coordinates": {
        "latitude": 42.2736253,
        "longitude": -83.768574
      }
    },
    {
      "locality_id": "L2082263",
      "name": "Oakwoods Nature Area",
      "file": "hotspots/L2082263_oakwoods_nature_area.json",
      "total_checklists": 1936,
      "coordinates": {
        "latitude": 42.3186455,
        "longitude": -83.6990404
      }
    },
    {
      "locality_id": "L2661845",
      "name": "Waterworks Park",
      "file": "hotspots/L2661845_waterworks_park.json",
      "total_checklists": 1839,
      "coordinates": {
        "latitude": 42.2353968,
        "longitude": -83.6075771
      }
    },
    {
      "locality_id": "L899963",
      "name": "LeFurge Woods Nature Preserve",
      "file": "hotspots/L899963_lefurge_woods_nature_preserve.json",
      "total_checklists": 1733,
      "coordinates": {
        "latitude": 42.2866593,
        "longitude": -83.6015797
      }
    },
    {
      "locality_id": "L5579249",
      "name": "Conservancy Farm",
      "file": "hotspots/L5579249_conservancy_farm.json",
      "total_checklists": 1614,
      "coordinates": {
        "latitude": 42.2927626,
        "longitude": -83.5966498
      }
    },
    {
      "locality_id": "L1192994",
      "name": "Ann Arbor Landfill/Wheeler Service Center",
      "file": "hotspots/L1192994_ann_arbor_landfill_wheeler_service_center.json",
      "total_checklists": 1499,
      "coordinates": {
        "latitude": 42.2268967,
        "longitude": -83.7038898
      }
    },
    {
      "locality_id": "L896482",
      "name": "Cherry Hill Nature Preserve",
      "file": "hotspots/L896482_cherry_hill_nature_preserve.json",
      "total_checklists": 1417,
      "coordinates": {
        "latitude": 42.3037691,
        "longitude": -83.639136
      }
    },
    {
      "locality_id": "L612840",
      "name": "County Farm Park",
      "file": "hotspots/L612840_county_farm_park.json",
      "total_checklists": 1291,
      "coordinates": {
        "latitude": 42.2552048,
        "longitude": -83.7072372
      }
    },
    {
      "locality_id": "L1131706",
      "name": "Pinckney RA--Embury Rd.",
      "file": "hotspots/L1131706_pinckney_ra_embury_rd.json",
      "total_checklists": 1277,
      "coordinates": {
        "latitude": 42.3912939,
        "longitude": -84.054594
      }
    },
    {
      "locality_id": "L908259",
      "name": "DeVine Preserve",
      "file": "hotspots/L908259_devine_preserve.json",
      "total_checklists": 1222,
      "coordinates": {
        "latitude": 42.2726409,
        "longitude": -83.8490295
      }
    },
    {
      "locality_id": "L477087",
      "name": "Portage Lake (Washtenaw Co.)",
      "file": "hotspots/L477087_portage_lake_washtenaw_co.json",
      "total_checklists": 1077,
      "coordinates": {
        "latitude": 42.4185144,
        "longitude": -83.9254618
      }
    },
    {
      "locality_id": "L961970",
      "name": "Island Park",
      "file": "hotspots/L961970_island_park.json",
      "total_checklists": 1072,
      "coordinates": {
        "latitude": 42.2905841,
        "longitude": -83.7287848
      }
    },
    {
      "locality_id": "L1916119",
      "name": "Waterloo RA--Crooked Lake",
      "file": "hotspots/L1916119_waterloo_ra_crooked_lake.json",
      "total_checklists": 1048,
      "coordinates": {
        "latitude": 42.3218186,
        "longitude": -84.1148043
      }
    },
    {
      "locality_id": "L1069205",
      "name": "Rolling Hills Park",
      "file": "hotspots/L1069205_rolling_hills_park.json",
      "total_checklists": 1021,
      "coordinates": {
        "latitude": 42.1786876,
        "longitude": -83.6464258
      }
    },
    {
      "locality_id": "L5782652",
      "name": "Pierce Lake",
      "file": "hotspots/L5782652_pierce_lake.json",
      "total_checklists": 1020,
      "coordinates": {
        "latitude": 42.301838,
        "longitude": -84.014917
      }
    },
    {
      "locality_id": "L785292",
      "name": "State Rd. at Textile Rd.--pond",
      "file": "hotspots/L785292_state_rd_at_textile_rd_pond.json",
      "total_checklists": 879,
      "coordinates": {
        "latitude": 42.1990925,
        "longitude": -83.7356418
      }
    },
    {
      "locality_id": "L5151062",
      "name": "Arb/Gallup Bike Pathway",
      "file": "hotspots/L5151062_arb_gallup_bike_pathway.json",
      "total_checklists": 855,
      "coordinates": {
        "latitude": 42.2829764,
        "longitude": -83.7147367
      }
    },
    {
      "locality_id": "L2862482",
      "name": "Park Lyndon County Park",
      "file": "hotspots/L2862482_park_lyndon_county_park.json",
      "total_checklists": 831,
      "coordinates": {
        "latitude": 42.3795273,
        "longitude": -84.0614256
      }
    },
    {
      "locality_id": "L8146557",
      "name": "Domino's Farms",
      "file": "hotspots/L8146557_domino_s_farms.json",
      "total_checklists": 826,
      "coordinates": {
        "latitude": 42.315379,
        "longitude": -83.684363
      }
    },
    {
      "locality_id": "L675460",
      "name": "Gotfredson Rd. marsh",
      "file": "hotspots/L675460_gotfredson_rd_marsh.json",
      "total_checklists": 824,
      "coordinates": {
        "latitude": 42.3285372,
        "longitude": -83.5669041
      }
    },
    {
      "locality_id": "L1137478",
      "name": "Sharonville SGA (Washtenaw Co.)",
      "file": "hotspots/L1137478_sharonville_sga_washtenaw_co.json",
      "total_checklists": 814,
      "coordinates": {
        "latitude": 42.1685883,
        "longitude": -84.1147882
      }
    },
    {
      "locality_id": "L637105",
      "name": "Marshall Nature Area",
      "file": "hotspots/L637105_marshall_nature_area.json",
      "total_checklists": 812,
      "coordinates": {
        "latitude": 42.3146392,
        "longitude": -83.6676693
      }
    },
    {
      "locality_id": "L1519626",
      "name": "Bird Hills Nature Area",
      "file": "hotspots/L1519626_bird_hills_nature_area.json",
      "total_checklists": 800,
      "coordinates": {
        "latitude": 42.3042843,
        "longitude": -83.7607666
      }
    },
    {
      "locality_id": "L20533360",
      "name": "Sharon Mills Co. Park--north",
      "file": "hotspots/L20533360_sharon_mills_co_park_north.json",
      "total_checklists": 779,
      "coordinates": {
        "latitude": 42.1824016,
        "longitude": -84.0935646
      }
    },
    {
      "locality_id": "L1591926",
      "name": "Argo Nature Area",
      "file": "hotspots/L1591926_argo_nature_area.json",
      "total_checklists": 771,
      "coordinates": {
        "latitude": 42.2927543,
        "longitude": -83.7439746
      }
    },
    {
      "locality_id": "L1018788",
      "name": "Cedar Lake Campground",
      "file": "hotspots/L1018788_cedar_lake_campground.json",
      "total_checklists": 768,
      "coordinates": {
        "latitude": 42.3173683,
        "longitude": -84.0757084
      }
    },
    {
      "locality_id": "L1849723",
      "name": "Sharon Mills County Park",
      "file": "hotspots/L1849723_sharon_mills_county_park.json",
      "total_checklists": 765,
      "coordinates": {
        "latitude": 42.1777353,
        "longitude": -84.092301
      }
    },
    {
      "locality_id": "L324472",
      "name": "Miller Natural Area",
      "file": "hotspots/L324472_miller_natural_area.json",
      "total_checklists": 762,
      "coordinates": {
        "latitude": 42.2879872,
        "longitude": -83.7683267
      }
    },
    {
      "locality_id": "L492247",
      "name": "Stinchfield Woods",
      "file": "hotspots/L492247_stinchfield_woods.json",
      "total_checklists": 762,
      "coordinates": {
        "latitude": 42.4075797,
        "longitude": -83.921556
      }
    },
    {
      "locality_id": "L11791078",
      "name": "North Hydro Park",
      "file": "hotspots/L11791078_north_hydro_park.json",
      "total_checklists": 753,
      "coordinates": {
        "latitude": 42.2075962,
        "longitude": -83.5544943
      }
    },
    {
      "locality_id": "L687178",
      "name": "Redbud Nature Area",
      "file": "hotspots/L687178_redbud_nature_area.json",
      "total_checklists": 728,
      "coordinates": {
        "latitude": 42.2531084,
        "longitude": -83.6952209
      }
    },
    {
      "locality_id": "L2082201",
      "name": "Black Pond Woods Nature Area",
      "file": "hotspots/L2082201_black_pond_woods_nature_area.json",
      "total_checklists": 723,
      "coordinates": {
        "latitude": 42.303809,
        "longitude": -83.7296927
      }
    },
    {
      "locality_id": "L4396071",
      "name": "Arbor Hills Nature Area",
      "file": "hotspots/L4396071_arbor_hills_nature_area.json",
      "total_checklists": 718,
      "coordinates": {
        "latitude": 42.317808,
        "longitude": -83.692929
      }
    },
    {
      "locality_id": "L771459",
      "name": "Nan Weston Nature Preserve at Sharon Hollow",
      "file": "hotspots/L771459_nan_weston_nature_preserve_at_sharon_hollow.json",
      "total_checklists": 715,
      "coordinates": {
        "latitude": 42.1860966,
        "longitude": -84.1105589
      }
    },
    {
      "locality_id": "L14395009",
      "name": "Ford Lake Park",
      "file": "hotspots/L14395009_ford_lake_park.json",
      "total_checklists": 668,
      "coordinates": {
        "latitude": 42.2099067,
        "longitude": -83.5775546
      }
    },
    {
      "locality_id": "L2082243",
      "name": "Greenview/Pioneer",
      "file": "hotspots/L2082243_greenview_pioneer.json",
      "total_checklists": 651,
      "coordinates": {
        "latitude": 42.2581668,
        "longitude": -83.7617934
      }
    },
    {
      "locality_id": "L683158",
      "name": "Scarlett-Mitchell Nature Area",
      "file": "hotspots/L683158_scarlett_mitchell_nature_area.json",
      "total_checklists": 651,
      "coordinates": {
        "latitude": 42.2326483,
        "longitude": -83.6923027
      }
    },
    {
      "locality_id": "L1324728",
      "name": "Ford Lake--Bridge Rd. dam",
      "file": "hotspots/L1324728_ford_lake_bridge_rd_dam.json",
      "total_checklists": 646,
      "coordinates": {
        "latitude": 42.2061917,
        "longitude": -83.5577067
      }
    },
    {
      "locality_id": "L1155167",
      "name": "Lillie Park",
      "file": "hotspots/L1155167_lillie_park.json",
      "total_checklists": 632,
      "coordinates": {
        "latitude": 42.2264518,
        "longitude": -83.6985254
      }
    },
    {
      "locality_id": "L1143523",
      "name": "Swift Run Pond",
      "file": "hotspots/L1143523_swift_run_pond.json",
      "total_checklists": 628,
      "coordinates": {
        "latitude": 42.2359211,
        "longitude": -83.7018369
      }
    },
    {
      "locality_id": "L2372685",
      "name": "Hewen's Creek Park",
      "file": "hotspots/L2372685_hewen_s_creek_park.json",
      "total_checklists": 625,
      "coordinates": {
        "latitude": 42.1733275,
        "longitude": -83.6290455
      }
    },
    {
      "locality_id": "L20311322",
      "name": "Loonfeather Point Park",
      "file": "hotspots/L20311322_loonfeather_point_park.json",
      "total_checklists": 619,
      "coordinates": {
        "latitude": 42.2198762,
        "longitude": -83.5836702
      }
    },
    {
      "locality_id": "L1124805",
      "name": "Ford Lake",
      "file": "hotspots/L1124805_ford_lake.json",
      "total_checklists": 607,
      "coordinates": {
        "latitude": 42.2186656,
        "longitude": -83.5890484
      }
    },
    {
      "locality_id": "L1275192",
      "name": "Whitmore Lake (Washtenaw Co.)",
      "file": "hotspots/L1275192_whitmore_lake_washtenaw_co.json",
      "total_checklists": 606,
      "coordinates": {
        "latitude": 42.4225357,
        "longitude": -83.7554741
      }
    },
    {
      "locality_id": "L1475046",
      "name": "Vreeland Rd. pond",
      "file": "hotspots/L1475046_vreeland_rd_pond.json",
      "total_checklists": 602,
      "coordinates": {
        "latitude": 42.2891886,
        "longitude": -83.6156524
      }
    },
    {
      "locality_id": "L11464536",
      "name": "Kilburn Park",
      "file": "hotspots/L11464536_kilburn_park.json",
      "total_checklists": 601,
      "coordinates": {
        "latitude": 42.3192008,
        "longitude": -83.6958432
      }
    },
    {
      "locality_id": "L4765377",
      "name": "Watkins Lake County Preserve",
      "file": "hotspots/L4765377_watkins_lake_county_preserve.json",
      "total_checklists": 594,
      "coordinates": {
        "latitude": 42.1297488,
        "longitude": -84.1293639
      }
    },
    {
      "locality_id": "L1018782",
      "name": "Gerald E. Eddy Discovery Center",
      "file": "hotspots/L1018782_gerald_e_eddy_discovery_center.json",
      "total_checklists": 588,
      "coordinates": {
        "latitude": 42.3231592,
        "longitude": -84.0858364
      }
    },
    {
      "locality_id": "L1187643",
      "name": "West Lake Preserve",
      "file": "hotspots/L1187643_west_lake_preserve.json",
      "total_checklists": 577,
      "coordinates": {
        "latitude": 42.3514747,
        "longitude": -84.0041256
      }
    },
    {
      "locality_id": "L3576213",
      "name": "M-52 and Lehman Rd. fluddle",
      "file": "hotspots/L3576213_m_52_and_lehman_rd_fluddle.json",
      "total_checklists": 570,
      "coordinates": {
        "latitude": 42.2470965,
        "longitude": -84.035368
      }
    },
    {
      "locality_id": "L903193",
      "name": "Parker Mill Park",
      "file": "hotspots/L903193_parker_mill_park.json",
      "total_checklists": 566,
      "coordinates": {
        "latitude": 42.2725774,
        "longitude": -83.6631846
      }
    },
    {
      "locality_id": "L1666034",
      "name": "West Park",
      "file": "hotspots/L1666034_west_park.json",
      "total_checklists": 561,
      "coordinates": {
        "latitude": 42.2835176,
        "longitude": -83.7541246
      }
    },
    {
      "locality_id": "L1185473",
      "name": "Kosch-Headwaters Preserve and Springhill Nature Preserve",
      "file": "hotspots/L1185473_kosch_headwaters_preserve_and_springhill_nature_preserve.json",
      "total_checklists": 528,
      "coordinates": {
        "latitude": 42.3162417,
        "longitude": -83.5996056
      }
    },
    {
      "locality_id": "L2082265",
      "name": "Olson Park",
      "file": "hotspots/L2082265_olson_park.json",
      "total_checklists": 518,
      "coordinates": {
        "latitude": 42.3194785,
        "longitude": -83.7308514
      }
    },
    {
      "locality_id": "L2082271",
      "name": "Skyline High School",
      "file": "hotspots/L2082271_skyline_high_school.json",
      "total_checklists": 515,
      "coordinates": {
        "latitude": 42.3050309,
        "longitude": -83.7803864
      }
    },
    {
      "locality_id": "L35153895",
      "name": "Vreeland Rd. fluddle",
      "file": "hotspots/L35153895_vreeland_rd_fluddle.json",
      "total_checklists": 514,
      "coordinates": {
        "latitude": 42.288964,
        "longitude": -83.634941
      }
    },
    {
      "locality_id": "L605901",
      "name": "Avis Farms--ponds",
      "file": "hotspots/L605901_avis_farms_ponds.json",
      "total_checklists": 511,
      "coordinates": {
        "latitude": 42.2100837,
        "longitude": -83.7429428
      }
    },
    {
      "locality_id": "L4850763",
      "name": "University of Michigan--Central Campus",
      "file": "hotspots/L4850763_university_of_michigan_central_campus.json",
      "total_checklists": 509,
      "coordinates": {
        "latitude": 42.2756258,
        "longitude": -83.7376857
      }
    },
    {
      "locality_id": "L2115507",
      "name": "Foster Nature Area",
      "file": "hotspots/L2115507_foster_nature_area.json",
      "total_checklists": 504,
      "coordinates": {
        "latitude": 42.3165432,
        "longitude": -83.768177
      }
    },
    {
      "locality_id": "L1603242",
      "name": "Dexter Huron Metropark",
      "file": "hotspots/L1603242_dexter_huron_metropark.json",
      "total_checklists": 497,
      "coordinates": {
        "latitude": 42.33203,
        "longitude": -83.8625895
      }
    },
    {
      "locality_id": "L1153630",
      "name": "Scio Woods Preserve",
      "file": "hotspots/L1153630_scio_woods_preserve.json",
      "total_checklists": 493,
      "coordinates": {
        "latitude": 42.2559414,
        "longitude": -83.8080159
      }
    },
    {
      "locality_id": "L1148523",
      "name": "Pittsfield Preserve",
      "file": "hotspots/L1148523_pittsfield_preserve.json",
      "total_checklists": 473,
      "coordinates": {
        "latitude": 42.2117127,
        "longitude": -83.7100804
      }
    },
    {
      "locality_id": "L2325433",
      "name": "M-14 pond",
      "file": "hotspots/L2325433_m_14_pond.json",
      "total_checklists": 469,
      "coordinates": {
        "latitude": 42.2997224,
        "longitude": -83.7746572
      }
    },
    {
      "locality_id": "L894214",
      "name": "Meyer Nature Preserve",
      "file": "hotspots/L894214_meyer_nature_preserve.json",
      "total_checklists": 454,
      "coordinates": {
        "latitude": 42.2848655,
        "longitude": -83.6047554
      }
    },
    {
      "locality_id": "L2082204",
      "name": "Bluffs Nature Area",
      "file": "hotspots/L2082204_bluffs_nature_area.json",
      "total_checklists": 445,
      "coordinates": {
        "latitude": 42.2951197,
        "longitude": -83.7490153
      }
    },
    {
      "locality_id": "L2082277",
      "name": "Sugarbush Park",
      "file": "hotspots/L2082277_sugarbush_park.json",
      "total_checklists": 432,
      "coordinates": {
        "latitude": 42.3116878,
        "longitude": -83.6974311
      }
    },
    {
      "locality_id": "L1487097",
      "name": "Burns-Stokes Preserve",
      "file": "hotspots/L1487097_burns_stokes_preserve.json",
      "total_checklists": 422,
      "coordinates": {
        "latitude": 42.3241265,
        "longitude": -83.8408471
      }
    },
    {
      "locality_id": "L908257",
      "name": "Saginaw Forest",
      "file": "hotspots/L908257_saginaw_forest.json",
      "total_checklists": 417,
      "coordinates": {
        "latitude": 42.2749273,
        "longitude": -83.8065863
      }
    },
    {
      "locality_id": "L1173642",
      "name": "Leonard Preserve",
      "file": "hotspots/L1173642_leonard_preserve.json",
      "total_checklists": 413,
      "coordinates": {
        "latitude": 42.155339,
        "longitude": -84.0557957
      }
    },
    {
      "locality_id": "L2082268",
      "name": "Ruthven Nature Area",
      "file": "hotspots/L2082268_ruthven_nature_area.json",
      "total_checklists": 411,
      "coordinates": {
        "latitude": 42.2784519,
        "longitude": -83.6974633
      }
    },
    {
      "locality_id": "L2082197",
      "name": "Bandemer Nature Area",
      "file": "hotspots/L2082197_bandemer_nature_area.json",
      "total_checklists": 407,
      "coordinates": {
        "latitude": 42.2994767,
        "longitude": -83.7427336
      }
    },
    {
      "locality_id": "L1522623",
      "name": "Pinckney RA--Silver Lake",
      "file": "hotspots/L1522623_pinckney_ra_silver_lake.json",
      "total_checklists": 407,
      "coordinates": {
        "latitude": 42.4138186,
        "longitude": -83.9628457
      }
    },
    {
      "locality_id": "L5580294",
      "name": "Whitmore Lake Preserve",
      "file": "hotspots/L5580294_whitmore_lake_preserve.json",
      "total_checklists": 406,
      "coordinates": {
        "latitude": 42.4130317,
        "longitude": -83.7344912
      }
    },
    {
      "locality_id": "L1513727",
      "name": "Sharon Shorthills Preserve",
      "file": "hotspots/L1513727_sharon_shorthills_preserve.json",
      "total_checklists": 393,
      "coordinates": {
        "latitude": 42.2289009,
        "longitude": -84.053465
      }
    },
    {
      "locality_id": "L2082236",
      "name": "Forest Nature Area",
      "file": "hotspots/L2082236_forest_nature_area.json",
      "total_checklists": 390,
      "coordinates": {
        "latitude": 42.2703862,
        "longitude": -83.6577559
      }
    },
    {
      "locality_id": "L1035738",
      "name": "Daly Rd. pond",
      "file": "hotspots/L1035738_daly_rd_pond.json",
      "total_checklists": 384,
      "coordinates": {
        "latitude": 42.3498067,
        "longitude": -83.8660884
      }
    },
    {
      "locality_id": "L2082266",
      "name": "Riverside Park (Ann Arbor)",
      "file": "hotspots/L2082266_riverside_park_ann_arbor.json",
      "total_checklists": 382,
      "coordinates": {
        "latitude": 42.2869847,
        "longitude": -83.736527
      }
    },
    {
      "locality_id": "L15789326",
      "name": "stakeout Roseate Spoonbill, Koch Warner Drain, Saline (2021)",
      "file": "hotspots/L15789326_stakeout_roseate_spoonbill_koch_warner_drain_saline_2021.json",
      "total_checklists": 377,
      "coordinates": {
        "latitude": 42.155706,
        "longitude": -83.77398
      }
    },
    {
      "locality_id": "L894219",
      "name": "Water Conservation Easement (Vreeland Rd & Prospect Rd)",
      "file": "hotspots/L894219_water_conservation_easement_vreeland_rd_prospect_rd.json",
      "total_checklists": 376,
      "coordinates": {
        "latitude": 42.2916436,
        "longitude": -83.6072981
      }
    },
    {
      "locality_id": "L1651157",
      "name": "S. Parker Rd. marsh",
      "file": "hotspots/L1651157_s_parker_rd_marsh.json",
      "total_checklists": 364,
      "coordinates": {
        "latitude": 42.2334765,
        "longitude": -83.8941153
      }
    },
    {
      "locality_id": "L2082246",
      "name": "Huron Hills Golf Course",
      "file": "hotspots/L2082246_huron_hills_golf_course.json",
      "total_checklists": 356,
      "coordinates": {
        "latitude": 42.265702,
        "longitude": -83.6986971
      }
    },
    {
      "locality_id": "L3079640",
      "name": "Fox Science Preserve",
      "file": "hotspots/L3079640_fox_science_preserve.json",
      "total_checklists": 353,
      "coordinates": {
        "latitude": 42.3158768,
        "longitude": -83.8319975
      }
    },
    {
      "locality_id": "L2082222",
      "name": "Cedar Bend Nature Area",
      "file": "hotspots/L2082222_cedar_bend_nature_area.json",
      "total_checklists": 351,
      "coordinates": {
        "latitude": 42.2920722,
        "longitude": -83.725723
      }
    },
    {
      "locality_id": "L895861",
      "name": "Brauer Preserve",
      "file": "hotspots/L895861_brauer_preserve.json",
      "total_checklists": 346,
      "coordinates": {
        "latitude": 42.2349202,
        "longitude": -83.9006352
      }
    },
    {
      "locality_id": "L2606090",
      "name": "Pleasant Lake",
      "file": "hotspots/L2606090_pleasant_lake.json",
      "total_checklists": 344,
      "coordinates": {
        "latitude": 42.2021395,
        "longitude": -83.9536199
      }
    },
    {
      "locality_id": "L2161919",
      "name": "Lindley Rd.",
      "file": "hotspots/L2161919_lindley_rd.json",
      "total_checklists": 333,
      "coordinates": {
        "latitude": 42.3686148,
        "longitude": -84.0296001
      }
    },
    {
      "locality_id": "L1371386",
      "name": "Draper-Houston Meadows Preserve",
      "file": "hotspots/L1371386_draper_houston_meadows_preserve.json",
      "total_checklists": 309,
      "coordinates": {
        "latitude": 42.0909473,
        "longitude": -83.7013345
      }
    },
    {
      "locality_id": "L473490",
      "name": "Huron River--Superior Rd.",
      "file": "hotspots/L473490_huron_river_superior_rd.json",
      "total_checklists": 303,
      "coordinates": {
        "latitude": 42.2595723,
        "longitude": -83.6381006
      }
    },
    {
      "locality_id": "L1155181",
      "name": "Avis Farms--south",
      "file": "hotspots/L1155181_avis_farms_south.json",
      "total_checklists": 303,
      "coordinates": {
        "latitude": 42.1964139,
        "longitude": -83.7305403
      }
    },
    {
      "locality_id": "L622704",
      "name": "Salem Landfill (restricted access)",
      "file": "hotspots/L622704_salem_landfill_restricted_access.json",
      "total_checklists": 302,
      "coordinates": {
        "latitude": 42.4012771,
        "longitude": -83.5578918
      }
    },
    {
      "locality_id": "L1036396",
      "name": "Little Lake",
      "file": "hotspots/L1036396_little_lake.json",
      "total_checklists": 297,
      "coordinates": {
        "latitude": 42.2810158,
        "longitude": -83.8147616
      }
    },
    {
      "locality_id": "L3143980",
      "name": "Baker Woods Preserve",
      "file": "hotspots/L3143980_baker_woods_preserve.json",
      "total_checklists": 276,
      "coordinates": {
        "latitude": 42.3109506,
        "longitude": -83.9639783
      }
    },
    {
      "locality_id": "L11757860",
      "name": "Peninsular Park",
      "file": "hotspots/L11757860_peninsular_park.json",
      "total_checklists": 274,
      "coordinates": {
        "latitude": 42.2566989,
        "longitude": -83.6239918
      }
    },
    {
      "locality_id": "L2190747",
      "name": "Delhi Metropark",
      "file": "hotspots/L2190747_delhi_metropark.json",
      "total_checklists": 269,
      "coordinates": {
        "latitude": 42.3310753,
        "longitude": -83.8074017
      }
    },
    {
      "locality_id": "L36626434",
      "name": "Janice Anschuetz Highland Preserve",
      "file": "hotspots/L36626434_janice_anschuetz_highland_preserve.json",
      "total_checklists": 265,
      "coordinates": {
        "latitude": 42.2610557,
        "longitude": -83.6096277
      }
    },
    {
      "locality_id": "L2388678",
      "name": "Torrey Rd. hawk watch",
      "file": "hotspots/L2388678_torrey_rd_hawk_watch.json",
      "total_checklists": 264,
      "coordinates": {
        "latitude": 42.087633,
        "longitude": -83.5671311
      }
    },
    {
      "locality_id": "L19191216",
      "name": "Platt Rd. fluddles",
      "file": "hotspots/L19191216_platt_rd_fluddles.json",
      "total_checklists": 245,
      "coordinates": {
        "latitude": 42.2183474,
        "longitude": -83.6995551
      }
    },
    {
      "locality_id": "L7909307",
      "name": "Leslee Niethammer Saline River Preserve",
      "file": "hotspots/L7909307_leslee_niethammer_saline_river_preserve.json",
      "total_checklists": 240,
      "coordinates": {
        "latitude": 42.1536687,
        "longitude": -83.7734342
      }
    },
    {
      "locality_id": "L2082248",
      "name": "Kuebler Langford Nature Area",
      "file": "hotspots/L2082248_kuebler_langford_nature_area.json",
      "total_checklists": 239,
      "coordinates": {
        "latitude": 42.3001747,
        "longitude": -83.750807
      }
    },
    {
      "locality_id": "L7270421",
      "name": "Riverside Park (Ypsilanti)",
      "file": "hotspots/L7270421_riverside_park_ypsilanti.json",
      "total_checklists": 237,
      "coordinates": {
        "latitude": 42.2437103,
        "longitude": -83.6113295
      }
    },
    {
      "locality_id": "L11437341",
      "name": "West Scio Preserve--Dino Dr. trailhead",
      "file": "hotspots/L11437341_west_scio_preserve_dino_dr_trailhead.json",
      "total_checklists": 227,
      "coordinates": {
        "latitude": 42.2867854,
        "longitude": -83.8809861
      }
    },
    {
      "locality_id": "L5675422",
      "name": "Clark and Avis Spike Preserve",
      "file": "hotspots/L5675422_clark_and_avis_spike_preserve.json",
      "total_checklists": 218,
      "coordinates": {
        "latitude": 42.2361912,
        "longitude": -84.0618682
      }
    },
    {
      "locality_id": "L9000726",
      "name": "Wilderness Park",
      "file": "hotspots/L9000726_wilderness_park.json",
      "total_checklists": 217,
      "coordinates": {
        "latitude": 42.1577147,
        "longitude": -83.7737989
      }
    },
    {
      "locality_id": "L15904271",
      "name": "Sylvan Park",
      "file": "hotspots/L15904271_sylvan_park.json",
      "total_checklists": 214,
      "coordinates": {
        "latitude": 42.252333,
        "longitude": -83.686526
      }
    },
    {
      "locality_id": "L5840121",
      "name": "Maple Rd. troll bridge",
      "file": "hotspots/L5840121_maple_rd_troll_bridge.json",
      "total_checklists": 209,
      "coordinates": {
        "latitude": 42.1301394,
        "longitude": -83.7754498
      }
    },
    {
      "locality_id": "L2111486",
      "name": "Curtiss Park",
      "file": "hotspots/L2111486_curtiss_park.json",
      "total_checklists": 206,
      "coordinates": {
        "latitude": 42.1606677,
        "longitude": -83.7874889
      }
    },
    {
      "locality_id": "L3578883",
      "name": "B2B Trail--Dexter to Hudson Mills Metropark",
      "file": "hotspots/L3578883_b2b_trail_dexter_to_hudson_mills_metropark.json",
      "total_checklists": 206,
      "coordinates": {
        "latitude": 42.3435582,
        "longitude": -83.8871491
      }
    },
    {
      "locality_id": "L2082250",
      "name": "Lakewood Nature Area",
      "file": "hotspots/L2082250_lakewood_nature_area.json",
      "total_checklists": 202,
      "coordinates": {
        "latitude": 42.2770706,
        "longitude": -83.7939692
      }
    },
    {
      "locality_id": "L21614119",
      "name": "Lakeside Park",
      "file": "hotspots/L21614119_lakeside_park.json",
      "total_checklists": 202,
      "coordinates": {
        "latitude": 42.2034476,
        "longitude": -83.5640112
      }
    },
    {
      "locality_id": "L2842581",
      "name": "Sloan Preserve",
      "file": "hotspots/L2842581_sloan_preserve.json",
      "total_checklists": 199,
      "coordinates": {
        "latitude": 42.3162621,
        "longitude": -83.884879
      }
    },
    {
      "locality_id": "L18274968",
      "name": "Huron River Oxbow",
      "file": "hotspots/L18274968_huron_river_oxbow.json",
      "total_checklists": 198,
      "coordinates": {
        "latitude": 42.3127811,
        "longitude": -83.7916523
      }
    },
    {
      "locality_id": "L11867399",
      "name": "Grizzly Nature Trail",
      "file": "hotspots/L11867399_grizzly_nature_trail.json",
      "total_checklists": 197,
      "coordinates": {
        "latitude": 42.2387409,
        "longitude": -83.6376983
      }
    },
    {
      "locality_id": "L258923",
      "name": "Waterloo RA (Washtenaw Co.)",
      "file": "hotspots/L258923_waterloo_ra_washtenaw_co.json",
      "total_checklists": 196,
      "coordinates": {
        "latitude": 42.3251672,
        "longitude": -84.0957356
      }
    },
    {
      "locality_id": "L2478564",
      "name": "Ann Arbor Municipal Airport",
      "file": "hotspots/L2478564_ann_arbor_municipal_airport.json",
      "total_checklists": 195,
      "coordinates": {
        "latitude": 42.223349,
        "longitude": -83.746615
      }
    },
    {
      "locality_id": "L3153510",
      "name": "Mill Pond Park",
      "file": "hotspots/L3153510_mill_pond_park.json",
      "total_checklists": 191,
      "coordinates": {
        "latitude": 42.1707273,
        "longitude": -83.7947202
      }
    },
    {
      "locality_id": "L5669027",
      "name": "Frog Island Park",
      "file": "hotspots/L5669027_frog_island_park.json",
      "total_checklists": 190,
      "coordinates": {
        "latitude": 42.247545,
        "longitude": -83.612008
      }
    },
    {
      "locality_id": "L12728771",
      "name": "Hickory Woods Park",
      "file": "hotspots/L12728771_hickory_woods_park.json",
      "total_checklists": 190,
      "coordinates": {
        "latitude": 42.2089394,
        "longitude": -83.6694074
      }
    },
    {
      "locality_id": "L11903487",
      "name": "Tuttle Hill Rd. ponds",
      "file": "hotspots/L11903487_tuttle_hill_rd_ponds.json",
      "total_checklists": 189,
      "coordinates": {
        "latitude": 42.19217,
        "longitude": -83.581416
      }
    },
    {
      "locality_id": "L7071456",
      "name": "Fuller Park",
      "file": "hotspots/L7071456_fuller_park.json",
      "total_checklists": 180,
      "coordinates": {
        "latitude": 42.2874531,
        "longitude": -83.7286823
      }
    },
    {
      "locality_id": "L5841460",
      "name": "Fritz Park",
      "file": "hotspots/L5841460_fritz_park.json",
      "total_checklists": 179,
      "coordinates": {
        "latitude": 42.2699734,
        "longitude": -83.7648243
      }
    },
    {
      "locality_id": "L2082273",
      "name": "Stapp Nature Area",
      "file": "hotspots/L2082273_stapp_nature_area.json",
      "total_checklists": 169,
      "coordinates": {
        "latitude": 42.3078477,
        "longitude": -83.7163675
      }
    },
    {
      "locality_id": "L2707280",
      "name": "Geddes Dam",
      "file": "hotspots/L2707280_geddes_dam.json",
      "total_checklists": 167,
      "coordinates": {
        "latitude": 42.2707997,
        "longitude": -83.6711213
      }
    },
    {
      "locality_id": "L15848733",
      "name": "stakeout Roseate Spoonbill, Bemis Rd. swamp (2021)",
      "file": "hotspots/L15848733_stakeout_roseate_spoonbill_bemis_rd_swamp_2021.json",
      "total_checklists": 165,
      "coordinates": {
        "latitude": 42.1708306,
        "longitude": -83.7660566
      }
    },
    {
      "locality_id": "L4638933",
      "name": "Riverbend Preserve",
      "file": "hotspots/L4638933_riverbend_preserve.json",
      "total_checklists": 163,
      "coordinates": {
        "latitude": 42.0914076,
        "longitude": -83.9757693
      }
    },
    {
      "locality_id": "L1079577",
      "name": "Delhi Overlook",
      "file": "hotspots/L1079577_delhi_overlook.json",
      "total_checklists": 159,
      "coordinates": {
        "latitude": 42.3381142,
        "longitude": -83.8109366
      }
    },
    {
      "locality_id": "L1217368",
      "name": "Pinckney RA--Hankerd Rd.",
      "file": "hotspots/L1217368_pinckney_ra_hankerd_rd.json",
      "total_checklists": 156,
      "coordinates": {
        "latitude": 42.4058404,
        "longitude": -83.9909935
      }
    },
    {
      "locality_id": "L4624792",
      "name": "Toma Rd. and Stinchfield Woods Rd. powerline cut",
      "file": "hotspots/L4624792_toma_rd_and_stinchfield_woods_rd_powerline_cut.json",
      "total_checklists": 153,
      "coordinates": {
        "latitude": 42.4041268,
        "longitude": -83.9425164
      }
    },
    {
      "locality_id": "L7640129",
      "name": "Matthaei Botanical Gardens Trail",
      "file": "hotspots/L7640129_matthaei_botanical_gardens_trail.json",
      "total_checklists": 150,
      "coordinates": {
        "latitude": 42.2913918,
        "longitude": -83.6657669
      }
    },
    {
      "locality_id": "L7971685",
      "name": "Jack R. Smiley Nature Preserve",
      "file": "hotspots/L7971685_jack_r_smiley_nature_preserve.json",
      "total_checklists": 146,
      "coordinates": {
        "latitude": 42.3045843,
        "longitude": -83.6027019
      }
    },
    {
      "locality_id": "L2082254",
      "name": "Leslie Woods Nature Area",
      "file": "hotspots/L2082254_leslie_woods_nature_area.json",
      "total_checklists": 144,
      "coordinates": {
        "latitude": 42.303079,
        "longitude": -83.7200153
      }
    },
    {
      "locality_id": "L11815492",
      "name": "Knox Presbyterian Church",
      "file": "hotspots/L11815492_knox_presbyterian_church.json",
      "total_checklists": 144,
      "coordinates": {
        "latitude": 42.253,
        "longitude": -83.796
      }
    },
    {
      "locality_id": "L16088080",
      "name": "B2B Trail--Lyndon Twp. trailhead",
      "file": "hotspots/L16088080_b2b_trail_lyndon_twp_trailhead.json",
      "total_checklists": 142,
      "coordinates": {
        "latitude": 42.3799744,
        "longitude": -84.0780909
      }
    },
    {
      "locality_id": "L20595267",
      "name": "Dixboro and Five Mile Fluddle",
      "file": "hotspots/L20595267_dixboro_and_five_mile_fluddle.json",
      "total_checklists": 138,
      "coordinates": {
        "latitude": 42.3912882,
        "longitude": -83.6634294
      }
    },
    {
      "locality_id": "L2082244",
      "name": "Hansen Nature Area",
      "file": "hotspots/L2082244_hansen_nature_area.json",
      "total_checklists": 137,
      "coordinates": {
        "latitude": 42.2672502,
        "longitude": -83.7819529
      }
    },
    {
      "locality_id": "L2275398",
      "name": "Waterloo RA--McClure Rd.",
      "file": "hotspots/L2275398_waterloo_ra_mcclure_rd.json",
      "total_checklists": 136,
      "coordinates": {
        "latitude": 42.3299966,
        "longitude": -84.1208768
      }
    },
    {
      "locality_id": "L2082226",
      "name": "Dhu Varren Woods Nature Area",
      "file": "hotspots/L2082226_dhu_varren_woods_nature_area.json",
      "total_checklists": 134,
      "coordinates": {
        "latitude": 42.3156547,
        "longitude": -83.7204659
      }
    },
    {
      "locality_id": "L4512663",
      "name": "Brokaw Nature Area",
      "file": "hotspots/L4512663_brokaw_nature_area.json",
      "total_checklists": 133,
      "coordinates": {
        "latitude": 42.3167455,
        "longitude": -83.7956616
      }
    },
    {
      "locality_id": "L13186590",
      "name": "Saline Fisheries Research Station",
      "file": "hotspots/L13186590_saline_fisheries_research_station.json",
      "total_checklists": 133,
      "coordinates": {
        "latitude": 42.15549,
        "longitude": -83.776545
      }
    },
    {
      "locality_id": "L19025982",
      "name": "Waterloo RA--Green Lake Access",
      "file": "hotspots/L19025982_waterloo_ra_green_lake_access.json",
      "total_checklists": 132,
      "coordinates": {
        "latitude": 42.3617504,
        "longitude": -84.0687693
      }
    },
    {
      "locality_id": "L1032828",
      "name": "Huron Parkway Nature Area",
      "file": "hotspots/L1032828_huron_parkway_nature_area.json",
      "total_checklists": 130,
      "coordinates": {
        "latitude": 42.2654003,
        "longitude": -83.6917019
      }
    },
    {
      "locality_id": "L2082229",
      "name": "Dicken Woods Nature Area",
      "file": "hotspots/L2082229_dicken_woods_nature_area.json",
      "total_checklists": 129,
      "coordinates": {
        "latitude": 42.2644158,
        "longitude": -83.7782621
      }
    },
    {
      "locality_id": "L9450694",
      "name": "Garden Homes Park",
      "file": "hotspots/L9450694_garden_homes_park.json",
      "total_checklists": 126,
      "coordinates": {
        "latitude": 42.2979115,
        "longitude": -83.7780885
      }
    },
    {
      "locality_id": "L9971591",
      "name": "Ervin-Stucki Preserve",
      "file": "hotspots/L9971591_ervin_stucki_preserve.json",
      "total_checklists": 126,
      "coordinates": {
        "latitude": 42.1367607,
        "longitude": -83.9793366
      }
    },
    {
      "locality_id": "L1018790",
      "name": "Cavanaugh Lake",
      "file": "hotspots/L1018790_cavanaugh_lake.json",
      "total_checklists": 125,
      "coordinates": {
        "latitude": 42.3134968,
        "longitude": -84.0996552
      }
    },
    {
      "locality_id": "L16962498",
      "name": "Foster Rd. bridge",
      "file": "hotspots/L16962498_foster_rd_bridge.json",
      "total_checklists": 125,
      "coordinates": {
        "latitude": 42.3168636,
        "longitude": -83.7780377
      }
    },
    {
      "locality_id": "L15958664",
      "name": "Liberty Pond Nature Area",
      "file": "hotspots/L15958664_liberty_pond_nature_area.json",
      "total_checklists": 124,
      "coordinates": {
        "latitude": 42.2684141,
        "longitude": -83.8844037
      }
    },
    {
      "locality_id": "L2082220",
      "name": "Botsford Recreational Preserve",
      "file": "hotspots/L2082220_botsford_recreational_preserve.json",
      "total_checklists": 122,
      "coordinates": {
        "latitude": 42.299032,
        "longitude": -83.7930894
      }
    },
    {
      "locality_id": "L860161",
      "name": "Pinckney RA (Washtenaw Co.)",
      "file": "hotspots/L860161_pinckney_ra_washtenaw_co.json",
      "total_checklists": 120,
      "coordinates": {
        "latitude": 42.4102639,
        "longitude": -84.0157471
      }
    },
    {
      "locality_id": "L9397187",
      "name": "Reno Rd. & Hieber Rd.",
      "file": "hotspots/L9397187_reno_rd_hieber_rd.json",
      "total_checklists": 116,
      "coordinates": {
        "latitude": 42.2027329,
        "longitude": -83.9658395
      }
    },
    {
      "locality_id": "L8265970",
      "name": "Koenn Preserve",
      "file": "hotspots/L8265970_koenn_preserve.json",
      "total_checklists": 115,
      "coordinates": {
        "latitude": 42.2582658,
        "longitude": -84.1133787
      }
    },
    {
      "locality_id": "L16318428",
      "name": "Mill Creek Park",
      "file": "hotspots/L16318428_mill_creek_park.json",
      "total_checklists": 113,
      "coordinates": {
        "latitude": 42.3379973,
        "longitude": -83.890372
      }
    },
    {
      "locality_id": "L18473929",
      "name": "Waterloo RA--Mill Lake",
      "file": "hotspots/L18473929_waterloo_ra_mill_lake.json",
      "total_checklists": 113,
      "coordinates": {
        "latitude": 42.332636,
        "longitude": -84.093131
      }
    },
    {
      "locality_id": "L2082199",
      "name": "Bird Hills Nature Area--North",
      "file": "hotspots/L2082199_bird_hills_nature_area_north.json",
      "total_checklists": 111,
      "coordinates": {
        "latitude": 42.3089427,
        "longitude": -83.758167
      }
    },
    {
      "locality_id": "L2082281",
      "name": "Traver Creek Nature Area",
      "file": "hotspots/L2082281_traver_creek_nature_area.json",
      "total_checklists": 111,
      "coordinates": {
        "latitude": 42.3122353,
        "longitude": -83.7215281
      }
    },
    {
      "locality_id": "L8265851",
      "name": "Squiers Preserve",
      "file": "hotspots/L8265851_squiers_preserve.json",
      "total_checklists": 111,
      "coordinates": {
        "latitude": 42.2775663,
        "longitude": -84.0760275
      }
    },
    {
      "locality_id": "L16222213",
      "name": "Concordia University Ann Arbor",
      "file": "hotspots/L16222213_concordia_university_ann_arbor.json",
      "total_checklists": 111,
      "coordinates": {
        "latitude": 42.2724807,
        "longitude": -83.6829567
      }
    },
    {
      "locality_id": "L6326511",
      "name": "Searles Nature Preserve",
      "file": "hotspots/L6326511_searles_nature_preserve.json",
      "total_checklists": 110,
      "coordinates": {
        "latitude": 42.1577131,
        "longitude": -83.6560151
      }
    },
    {
      "locality_id": "L4491092",
      "name": "Miller-Smith Preserve",
      "file": "hotspots/L4491092_miller_smith_preserve.json",
      "total_checklists": 108,
      "coordinates": {
        "latitude": 42.3340374,
        "longitude": -83.9016223
      }
    },
    {
      "locality_id": "L1445400",
      "name": "Sutton Lake",
      "file": "hotspots/L1445400_sutton_lake.json",
      "total_checklists": 108,
      "coordinates": {
        "latitude": 42.2572928,
        "longitude": -83.9432657
      }
    },
    {
      "locality_id": "L4226573",
      "name": "Milan American Legion/Ford Lake Overlook",
      "file": "hotspots/L4226573_milan_american_legion_ford_lake_overlook.json",
      "total_checklists": 107,
      "coordinates": {
        "latitude": 42.0844721,
        "longitude": -83.684471
      }
    },
    {
      "locality_id": "L2137359",
      "name": "Northfield Woods Preserve",
      "file": "hotspots/L2137359_northfield_woods_preserve.json",
      "total_checklists": 104,
      "coordinates": {
        "latitude": 42.3477213,
        "longitude": -83.7438118
      }
    },
    {
      "locality_id": "L5835005",
      "name": "Pinckney RA--Pickerel Lake",
      "file": "hotspots/L5835005_pinckney_ra_pickerel_lake.json",
      "total_checklists": 102,
      "coordinates": {
        "latitude": 42.409218,
        "longitude": -83.98512
      }
    },
    {
      "locality_id": "L931979",
      "name": "Horner-McLaughlin Woods/Raymond F. Goodrich Preserve",
      "file": "hotspots/L931979_horner_mclaughlin_woods_raymond_f_goodrich_preserve.json",
      "total_checklists": 102,
      "coordinates": {
        "latitude": 42.3235876,
        "longitude": -83.6709309
      }
    },
    {
      "locality_id": "L13408863",
      "name": "Molin Nature Area",
      "file": "hotspots/L13408863_molin_nature_area.json",
      "total_checklists": 101,
      "coordinates": {
        "latitude": 42.2494442,
        "longitude": -83.7154982
      }
    },
    {
      "locality_id": "L7731846",
      "name": "Buttonbush Nature Area",
      "file": "hotspots/L7731846_buttonbush_nature_area.json",
      "total_checklists": 100,
      "coordinates": {
        "latitude": 42.3199767,
        "longitude": -83.7119256
      }
    },
    {
      "locality_id": "L761586",
      "name": "Washtenaw Community College--West Woods",
      "file": "hotspots/L761586_washtenaw_community_college_west_woods.json",
      "total_checklists": 95,
      "coordinates": {
        "latitude": 42.2644793,
        "longitude": -83.672905
      }
    },
    {
      "locality_id": "L12322793",
      "name": "Highland Cemetery",
      "file": "hotspots/L12322793_highland_cemetery.json",
      "total_checklists": 94,
      "coordinates": {
        "latitude": 42.2582244,
        "longitude": -83.6094363
      }
    },
    {
      "locality_id": "L3024314",
      "name": "Sharon Hills Preserve",
      "file": "hotspots/L3024314_sharon_hills_preserve.json",
      "total_checklists": 93,
      "coordinates": {
        "latitude": 42.2056334,
        "longitude": -84.0884972
      }
    },
    {
      "locality_id": "L16131127",
      "name": "Burns Park and School",
      "file": "hotspots/L16131127_burns_park_and_school.json",
      "total_checklists": 91,
      "coordinates": {
        "latitude": 42.2661805,
        "longitude": -83.7289889
      }
    },
    {
      "locality_id": "L12115275",
      "name": "Mack School",
      "file": "hotspots/L12115275_mack_school.json",
      "total_checklists": 90,
      "coordinates": {
        "latitude": 42.2876911,
        "longitude": -83.7603664
      }
    },
    {
      "locality_id": "L4402888",
      "name": "Iron Mill Pond",
      "file": "hotspots/L4402888_iron_mill_pond.json",
      "total_checklists": 89,
      "coordinates": {
        "latitude": 42.0996296,
        "longitude": -84.0918559
      }
    },
    {
      "locality_id": "L19212791",
      "name": "Dominican Meadows Preserve",
      "file": "hotspots/L19212791_dominican_meadows_preserve.json",
      "total_checklists": 88,
      "coordinates": {
        "latitude": 42.3341639,
        "longitude": -83.6621412
      }
    },
    {
      "locality_id": "L25492429",
      "name": "Pinckney RA--Joslin Lake",
      "file": "hotspots/L25492429_pinckney_ra_joslin_lake.json",
      "total_checklists": 88,
      "coordinates": {
        "latitude": 42.412903,
        "longitude": -84.069818
      }
    },
    {
      "locality_id": "L18327816",
      "name": "Northfield Twp. Community Park",
      "file": "hotspots/L18327816_northfield_twp_community_park.json",
      "total_checklists": 87,
      "coordinates": {
        "latitude": 42.4250083,
        "longitude": -83.7645917
      }
    },
    {
      "locality_id": "L5813092",
      "name": "Whitehall Nursing Home fluddle",
      "file": "hotspots/L5813092_whitehall_nursing_home_fluddle.json",
      "total_checklists": 84,
      "coordinates": {
        "latitude": 42.2137295,
        "longitude": -83.6922394
      }
    },
    {
      "locality_id": "L16183167",
      "name": "Mooreville Preserve",
      "file": "hotspots/L16183167_mooreville_preserve.json",
      "total_checklists": 84,
      "coordinates": {
        "latitude": 42.102706,
        "longitude": -83.734827
      }
    },
    {
      "locality_id": "L47086144",
      "name": "BirdSong Nature Preserve, Washtenaw US-MI",
      "file": "hotspots/L47086144_birdsong_nature_preserve_washtenaw_us_mi.json",
      "total_checklists": 84,
      "coordinates": {
        "latitude": 42.3034778,
        "longitude": -83.6379338
      }
    },
    {
      "locality_id": "L2832709",
      "name": "Lima Center Rd. marsh",
      "file": "hotspots/L2832709_lima_center_rd_marsh.json",
      "total_checklists": 83,
      "coordinates": {
        "latitude": 42.301783,
        "longitude": -83.9576
      }
    },
    {
      "locality_id": "L10873562",
      "name": "stakeout Harris's Sparrow, Chelsea (2020)",
      "file": "hotspots/L10873562_stakeout_harris_s_sparrow_chelsea_2020.json",
      "total_checklists": 83,
      "coordinates": {
        "latitude": 42.2973665,
        "longitude": -84.0939032
      }
    },
    {
      "locality_id": "L15609026",
      "name": "Osborne Mill Preserve",
      "file": "hotspots/L15609026_osborne_mill_preserve.json",
      "total_checklists": 83,
      "coordinates": {
        "latitude": 42.329926,
        "longitude": -83.8110272
      }
    },
    {
      "locality_id": "L17721399",
      "name": "Whitmore Lake High School swamp",
      "file": "hotspots/L17721399_whitmore_lake_high_school_swamp.json",
      "total_checklists": 82,
      "coordinates": {
        "latitude": 42.391612,
        "longitude": -83.770766
      }
    },
    {
      "locality_id": "L20626842",
      "name": "Salt Springs Park",
      "file": "hotspots/L20626842_salt_springs_park.json",
      "total_checklists": 81,
      "coordinates": {
        "latitude": 42.1560527,
        "longitude": -83.7802651
      }
    },
    {
      "locality_id": "L1044782",
      "name": "Morgan Woods Nature Preserve",
      "file": "hotspots/L1044782_morgan_woods_nature_preserve.json",
      "total_checklists": 79,
      "coordinates": {
        "latitude": 42.2175373,
        "longitude": -83.7245536
      }
    },
    {
      "locality_id": "L11038419",
      "name": "Waltrous Rd.",
      "file": "hotspots/L11038419_waltrous_rd.json",
      "total_checklists": 79,
      "coordinates": {
        "latitude": 42.2774,
        "longitude": -84.0144
      }
    },
    {
      "locality_id": "L11250680",
      "name": "stakeout Hooded Oriole, The Pines of Cloverlane (2020)",
      "file": "hotspots/L11250680_stakeout_hooded_oriole_the_pines_of_cloverlane_2020.json",
      "total_checklists": 79,
      "coordinates": {
        "latitude": 42.2210186,
        "longitude": -83.663225
      }
    },
    {
      "locality_id": "L4600891",
      "name": "Waterloo RA--Cassidy Rd.",
      "file": "hotspots/L4600891_waterloo_ra_cassidy_rd.json",
      "total_checklists": 76,
      "coordinates": {
        "latitude": 42.3582585,
        "longitude": -84.0802038
      }
    },
    {
      "locality_id": "L1173660",
      "name": "Schwab Rd Pond",
      "file": "hotspots/L1173660_schwab_rd_pond.json",
      "total_checklists": 75,
      "coordinates": {
        "latitude": 42.1529131,
        "longitude": -84.0138352
      }
    },
    {
      "locality_id": "L2231575",
      "name": "Meyers Rd.",
      "file": "hotspots/L2231575_meyers_rd.json",
      "total_checklists": 73,
      "coordinates": {
        "latitude": 42.1779827,
        "longitude": -84.061941
      }
    },
    {
      "locality_id": "L9555358",
      "name": "Staebler Farm County Park",
      "file": "hotspots/L9555358_staebler_farm_county_park.json",
      "total_checklists": 73,
      "coordinates": {
        "latitude": 42.332098,
        "longitude": -83.6100382
      }
    },
    {
      "locality_id": "L26682501",
      "name": "Spencer Rd. pond",
      "file": "hotspots/L26682501_spencer_rd_pond.json",
      "total_checklists": 72,
      "coordinates": {
        "latitude": 42.380622,
        "longitude": -83.722629
      }
    },
    {
      "locality_id": "L901120",
      "name": "Marsh View Meadows Park",
      "file": "hotspots/L901120_marsh_view_meadows_park.json",
      "total_checklists": 70,
      "coordinates": {
        "latitude": 42.2002727,
        "longitude": -83.7209755
      }
    },
    {
      "locality_id": "L21397748",
      "name": "Ford Heritage Park",
      "file": "hotspots/L21397748_ford_heritage_park.json",
      "total_checklists": 70,
      "coordinates": {
        "latitude": 42.2059656,
        "longitude": -83.5996991
      }
    },
    {
      "locality_id": "L4576737",
      "name": "Brecon Park",
      "file": "hotspots/L4576737_brecon_park.json",
      "total_checklists": 69,
      "coordinates": {
        "latitude": 42.1737858,
        "longitude": -83.7799178
      }
    },
    {
      "locality_id": "L5840012",
      "name": "Mary McCann Park",
      "file": "hotspots/L5840012_mary_mccann_park.json",
      "total_checklists": 69,
      "coordinates": {
        "latitude": 42.1655004,
        "longitude": -83.7182437
      }
    },
    {
      "locality_id": "L14353009",
      "name": "Pinckney RA--Crooked Lake",
      "file": "hotspots/L14353009_pinckney_ra_crooked_lake.json",
      "total_checklists": 68,
      "coordinates": {
        "latitude": 42.4180934,
        "longitude": -83.9822873
      }
    },
    {
      "locality_id": "L16087632",
      "name": "Ypsilanti Alehouse/Haabs Health Building (Swifts & Nighthawks watch)",
      "file": "hotspots/L16087632_ypsilanti_alehouse_haabs_health_building_swifts_nighthawks_watch.json",
      "total_checklists": 68,
      "coordinates": {
        "latitude": 42.2427337,
        "longitude": -83.6138465
      }
    },
    {
      "locality_id": "L16838728",
      "name": "Recreation Park",
      "file": "hotspots/L16838728_recreation_park.json",
      "total_checklists": 66,
      "coordinates": {
        "latitude": 42.2403229,
        "longitude": -83.6287801
      }
    },
    {
      "locality_id": "L2104264",
      "name": "Pioneer Woods",
      "file": "hotspots/L2104264_pioneer_woods.json",
      "total_checklists": 65,
      "coordinates": {
        "latitude": 42.2610174,
        "longitude": -83.7592292
      }
    },
    {
      "locality_id": "L12246501",
      "name": "The Ponds trail",
      "file": "hotspots/L12246501_the_ponds_trail.json",
      "total_checklists": 65,
      "coordinates": {
        "latitude": 42.2508896,
        "longitude": -83.7203103
      }
    },
    {
      "locality_id": "L27588959",
      "name": "Hammer Pit (access revoked 2024, no access)",
      "file": "hotspots/L27588959_hammer_pit_access_revoked_2024_no_access.json",
      "total_checklists": 64,
      "coordinates": {
        "latitude": 42.138967,
        "longitude": -83.8562102
      }
    },
    {
      "locality_id": "L9145831",
      "name": "Leslie Park Golf Course",
      "file": "hotspots/L9145831_leslie_park_golf_course.json",
      "total_checklists": 63,
      "coordinates": {
        "latitude": 42.303574,
        "longitude": -83.725147
      }
    },
    {
      "locality_id": "L2082256",
      "name": "Narrow Gauge Way",
      "file": "hotspots/L2082256_narrow_gauge_way.json",
      "total_checklists": 61,
      "coordinates": {
        "latitude": 42.2822462,
        "longitude": -83.6929679
      }
    },
    {
      "locality_id": "L1044770",
      "name": "Washtenaw Community College--East Woods",
      "file": "hotspots/L1044770_washtenaw_community_college_east_woods.json",
      "total_checklists": 60,
      "coordinates": {
        "latitude": 42.2607315,
        "longitude": -83.6650944
      }
    },
    {
      "locality_id": "L7170342",
      "name": "Folkstone Park",
      "file": "hotspots/L7170342_folkstone_park.json",
      "total_checklists": 60,
      "coordinates": {
        "latitude": 42.2947575,
        "longitude": -83.686544
      }
    },
    {
      "locality_id": "L19027939",
      "name": "Pinckney RA--South Lake",
      "file": "hotspots/L19027939_pinckney_ra_south_lake.json",
      "total_checklists": 60,
      "coordinates": {
        "latitude": 42.4046944,
        "longitude": -84.0583513
      }
    },
    {
      "locality_id": "L15503863",
      "name": "Freeman Environmental Education Center",
      "file": "hotspots/L15503863_freeman_environmental_education_center.json",
      "total_checklists": 58,
      "coordinates": {
        "latitude": 42.3188762,
        "longitude": -83.657467
      }
    },
    {
      "locality_id": "L14050239",
      "name": "Fairview Cemetery",
      "file": "hotspots/L14050239_fairview_cemetery.json",
      "total_checklists": 54,
      "coordinates": {
        "latitude": 42.2938181,
        "longitude": -83.7407327
      }
    },
    {
      "locality_id": "L7951455",
      "name": "Goose Lake SGA",
      "file": "hotspots/L7951455_goose_lake_sga.json",
      "total_checklists": 53,
      "coordinates": {
        "latitude": 42.256883,
        "longitude": -84.1306087
      }
    },
    {
      "locality_id": "L687562",
      "name": "Waterloo RA--Sylvan Springs",
      "file": "hotspots/L687562_waterloo_ra_sylvan_springs.json",
      "total_checklists": 53,
      "coordinates": {
        "latitude": 42.331466,
        "longitude": -84.1156572
      }
    },
    {
      "locality_id": "L5839349",
      "name": "Sanford Road Park",
      "file": "hotspots/L5839349_sanford_road_park.json",
      "total_checklists": 52,
      "coordinates": {
        "latitude": 42.0946936,
        "longitude": -83.6609745
      }
    },
    {
      "locality_id": "L6600072",
      "name": "Chi-Bro Park",
      "file": "hotspots/L6600072_chi_bro_park.json",
      "total_checklists": 51,
      "coordinates": {
        "latitude": 42.151409,
        "longitude": -84.038196
      }
    },
    {
      "locality_id": "L1042198",
      "name": "Buhr Park",
      "file": "hotspots/L1042198_buhr_park.json",
      "total_checklists": 51,
      "coordinates": {
        "latitude": 42.248534,
        "longitude": -83.7108421
      }
    },
    {
      "locality_id": "L11099258",
      "name": "Creekshead Nature Preserve",
      "file": "hotspots/L11099258_creekshead_nature_preserve.json",
      "total_checklists": 51,
      "coordinates": {
        "latitude": 42.3805511,
        "longitude": -83.6072892
      }
    },
    {
      "locality_id": "L11233432",
      "name": "The Water Street Trail",
      "file": "hotspots/L11233432_the_water_street_trail.json",
      "total_checklists": 50,
      "coordinates": {
        "latitude": 42.2404678,
        "longitude": -83.6116593
      }
    },
    {
      "locality_id": "L1044778",
      "name": "Avis Farms--Woodlot",
      "file": "hotspots/L1044778_avis_farms_woodlot.json",
      "total_checklists": 47,
      "coordinates": {
        "latitude": 42.2161865,
        "longitude": -83.7508178
      }
    },
    {
      "locality_id": "L1270473",
      "name": "McCrone Rd Sod Farm",
      "file": "hotspots/L1270473_mccrone_rd_sod_farm.json",
      "total_checklists": 46,
      "coordinates": {
        "latitude": 42.1104171,
        "longitude": -83.6513186
      }
    },
    {
      "locality_id": "L9240690",
      "name": "Wurster Park",
      "file": "hotspots/L9240690_wurster_park.json",
      "total_checklists": 45,
      "coordinates": {
        "latitude": 42.2730099,
        "longitude": -83.7543704
      }
    },
    {
      "locality_id": "L15296715",
      "name": "Anthony & Rose Shatter Family Preserve",
      "file": "hotspots/L15296715_anthony_rose_shatter_family_preserve.json",
      "total_checklists": 45,
      "coordinates": {
        "latitude": 42.3763382,
        "longitude": -83.6131094
      }
    },
    {
      "locality_id": "L1474199",
      "name": "Farrel Rd. pond",
      "file": "hotspots/L1474199_farrel_rd_pond.json",
      "total_checklists": 44,
      "coordinates": {
        "latitude": 42.3633859,
        "longitude": -83.8369207
      }
    },
    {
      "locality_id": "L20071289",
      "name": "Ranzini Oaks (roadside only)",
      "file": "hotspots/L20071289_ranzini_oaks_roadside_only.json",
      "total_checklists": 43,
      "coordinates": {
        "latitude": 42.2602123,
        "longitude": -83.6280584
      }
    },
    {
      "locality_id": "L11958829",
      "name": "Braun's Tree Farm",
      "file": "hotspots/L11958829_braun_s_tree_farm.json",
      "total_checklists": 42,
      "coordinates": {
        "latitude": 42.3307422,
        "longitude": -83.7360871
      }
    },
    {
      "locality_id": "L1270493",
      "name": "Gooding Rd Sod Farm",
      "file": "hotspots/L1270493_gooding_rd_sod_farm.json",
      "total_checklists": 42,
      "coordinates": {
        "latitude": 42.1038902,
        "longitude": -83.6367702
      }
    },
    {
      "locality_id": "L30026247",
      "name": "Lima Center Woods",
      "file": "hotspots/L30026247_lima_center_woods.json",
      "total_checklists": 42,
      "coordinates": {
        "latitude": 42.2669187,
        "longitude": -83.9558542
      }
    },
    {
      "locality_id": "L5872560",
      "name": "Oakridge Nature Area",
      "file": "hotspots/L5872560_oakridge_nature_area.json",
      "total_checklists": 42,
      "coordinates": {
        "latitude": 42.2871861,
        "longitude": -83.7026863
      }
    },
    {
      "locality_id": "L23601600",
      "name": "Joan Rodman Memorial Plant Preserve",
      "file": "hotspots/L23601600_joan_rodman_memorial_plant_preserve.json",
      "total_checklists": 41,
      "coordinates": {
        "latitude": 42.1749984,
        "longitude": -83.8205205
      }
    },
    {
      "locality_id": "L4904660",
      "name": "University of Michigan--Northwood V. housing area",
      "file": "hotspots/L4904660_university_of_michigan_northwood_v_housing_area.json",
      "total_checklists": 41,
      "coordinates": {
        "latitude": 42.2946435,
        "longitude": -83.6955535
      }
    },
    {
      "locality_id": "L16233726",
      "name": "Creekside Village pond",
      "file": "hotspots/L16233726_creekside_village_pond.json",
      "total_checklists": 40,
      "coordinates": {
        "latitude": 42.1887733,
        "longitude": -83.5807215
      }
    },
    {
      "locality_id": "L930569",
      "name": "Shanghai Prairie",
      "file": "hotspots/L930569_shanghai_prairie.json",
      "total_checklists": 39,
      "coordinates": {
        "latitude": 42.2713707,
        "longitude": -83.649559
      }
    },
    {
      "locality_id": "L10302500",
      "name": "Feldkamp Rd.",
      "file": "hotspots/L10302500_feldkamp_rd.json",
      "total_checklists": 39,
      "coordinates": {
        "latitude": 42.1526998,
        "longitude": -83.8646236
      }
    },
    {
      "locality_id": "L11166373",
      "name": "Hannah Nature Area",
      "file": "hotspots/L11166373_hannah_nature_area.json",
      "total_checklists": 38,
      "coordinates": {
        "latitude": 42.2828895,
        "longitude": -83.7609948
      }
    },
    {
      "locality_id": "L10323889",
      "name": "B2B Trail--Dexter Huron MP to Dexter",
      "file": "hotspots/L10323889_b2b_trail_dexter_huron_mp_to_dexter.json",
      "total_checklists": 38,
      "coordinates": {
        "latitude": 42.334555,
        "longitude": -83.8687788
      }
    },
    {
      "locality_id": "L11253243",
      "name": "Fletcher Rd. wetland",
      "file": "hotspots/L11253243_fletcher_rd_wetland.json",
      "total_checklists": 37,
      "coordinates": {
        "latitude": 42.2860839,
        "longitude": -83.9761454
      }
    },
    {
      "locality_id": "L14858640",
      "name": "Sunset Brooks Nature Area",
      "file": "hotspots/L14858640_sunset_brooks_nature_area.json",
      "total_checklists": 37,
      "coordinates": {
        "latitude": 42.2961462,
        "longitude": -83.757995
      }
    },
    {
      "locality_id": "L14034394",
      "name": "University of Michigan--North Campus",
      "file": "hotspots/L14034394_university_of_michigan_north_campus.json",
      "total_checklists": 37,
      "coordinates": {
        "latitude": 42.2905911,
        "longitude": -83.7191805
      }
    },
    {
      "locality_id": "L2477299",
      "name": "Arborcrest Cemetery",
      "file": "hotspots/L2477299_arborcrest_cemetery.json",
      "total_checklists": 36,
      "coordinates": {
        "latitude": 42.289969,
        "longitude": -83.7099758
      }
    },
    {
      "locality_id": "L8868414",
      "name": "Gotfredson Rd. and Ford Rd.",
      "file": "hotspots/L8868414_gotfredson_rd_and_ford_rd.json",
      "total_checklists": 35,
      "coordinates": {
        "latitude": 42.3211573,
        "longitude": -83.5648086
      }
    },
    {
      "locality_id": "L1038865",
      "name": "Montibeller Park",
      "file": "hotspots/L1038865_montibeller_park.json",
      "total_checklists": 35,
      "coordinates": {
        "latitude": 42.2358615,
        "longitude": -83.6735648
      }
    },
    {
      "locality_id": "L14017484",
      "name": "Hunt Park",
      "file": "hotspots/L14017484_hunt_park.json",
      "total_checklists": 35,
      "coordinates": {
        "latitude": 42.29158,
        "longitude": -83.751696
      }
    },
    {
      "locality_id": "L18089501",
      "name": "Willow Rd. and Maple Rd. fields",
      "file": "hotspots/L18089501_willow_rd_and_maple_rd_fields.json",
      "total_checklists": 34,
      "coordinates": {
        "latitude": 42.1116909,
        "longitude": -83.7748474
      }
    },
    {
      "locality_id": "L3499156",
      "name": "Prospect Park",
      "file": "hotspots/L3499156_prospect_park.json",
      "total_checklists": 34,
      "coordinates": {
        "latitude": 42.2466655,
        "longitude": -83.6014187
      }
    },
    {
      "locality_id": "L30555826",
      "name": "Lehman Rd. fluddle",
      "file": "hotspots/L30555826_lehman_rd_fluddle.json",
      "total_checklists": 34,
      "coordinates": {
        "latitude": 42.244559,
        "longitude": -84.053289
      }
    },
    {
      "locality_id": "L1035799",
      "name": "Gregory Rd. pond",
      "file": "hotspots/L1035799_gregory_rd_pond.json",
      "total_checklists": 32,
      "coordinates": {
        "latitude": 42.3699354,
        "longitude": -83.8501132
      }
    },
    {
      "locality_id": "L4640089",
      "name": "Weatherbee Woods Preserve/Schroter Park",
      "file": "hotspots/L4640089_weatherbee_woods_preserve_schroter_park.json",
      "total_checklists": 32,
      "coordinates": {
        "latitude": 42.3306544,
        "longitude": -83.5852289
      }
    },
    {
      "locality_id": "L16939153",
      "name": "Secrest Nature Preserve",
      "file": "hotspots/L16939153_secrest_nature_preserve.json",
      "total_checklists": 32,
      "coordinates": {
        "latitude": 42.3242947,
        "longitude": -83.589753
      }
    },
    {
      "locality_id": "L16929722",
      "name": "Eastern Michigan University campus",
      "file": "hotspots/L16929722_eastern_michigan_university_campus.json",
      "total_checklists": 31,
      "coordinates": {
        "latitude": 42.2466848,
        "longitude": -83.6242184
      }
    },
    {
      "locality_id": "L36387338",
      "name": "Van Curler Preserve",
      "file": "hotspots/L36387338_van_curler_preserve.json",
      "total_checklists": 31,
      "coordinates": {
        "latitude": 42.3401904,
        "longitude": -83.8574061
      }
    },
    {
      "locality_id": "L2082234",
      "name": "Dolph Nature Area--South",
      "file": "hotspots/L2082234_dolph_nature_area_south.json",
      "total_checklists": 30,
      "coordinates": {
        "latitude": 42.2756894,
        "longitude": -83.7972522
      }
    },
    {
      "locality_id": "L1206411",
      "name": "Notten Rd. railroad ponds & bog",
      "file": "hotspots/L1206411_notten_rd_railroad_ponds_bog.json",
      "total_checklists": 30,
      "coordinates": {
        "latitude": 42.2788329,
        "longitude": -84.1230869
      }
    },
    {
      "locality_id": "L30112354",
      "name": "Goodband Rd. marsh",
      "file": "hotspots/L30112354_goodband_rd_marsh.json",
      "total_checklists": 29,
      "coordinates": {
        "latitude": 42.4026688,
        "longitude": -84.0276441
      }
    },
    {
      "locality_id": "L8653368",
      "name": "Milan Nature Park",
      "file": "hotspots/L8653368_milan_nature_park.json",
      "total_checklists": 27,
      "coordinates": {
        "latitude": 42.0852257,
        "longitude": -83.6943118
      }
    },
    {
      "locality_id": "L2082240",
      "name": "Foxfire West Park",
      "file": "hotspots/L2082240_foxfire_west_park.json",
      "total_checklists": 27,
      "coordinates": {
        "latitude": 42.318828,
        "longitude": -83.7252831
      }
    },
    {
      "locality_id": "L24337426",
      "name": "Bethlehem Cemetery",
      "file": "hotspots/L24337426_bethlehem_cemetery.json",
      "total_checklists": 27,
      "coordinates": {
        "latitude": 42.2815713,
        "longitude": -83.7862778
      }
    },
    {
      "locality_id": "L18202885",
      "name": "Nancy Park",
      "file": "hotspots/L18202885_nancy_park.json",
      "total_checklists": 26,
      "coordinates": {
        "latitude": 42.2249058,
        "longitude": -83.5866099
      }
    },
    {
      "locality_id": "L24319719",
      "name": "Salem Twp Farm Preserve",
      "file": "hotspots/L24319719_salem_twp_farm_preserve.json",
      "total_checklists": 26,
      "coordinates": {
        "latitude": 42.3861907,
        "longitude": -83.5771608
      }
    },
    {
      "locality_id": "L9698769",
      "name": "Hickory Nature Area",
      "file": "hotspots/L9698769_hickory_nature_area.json",
      "total_checklists": 25,
      "coordinates": {
        "latitude": 42.311853,
        "longitude": -83.740662
      }
    },
    {
      "locality_id": "L13988264",
      "name": "Mitchell Field",
      "file": "hotspots/L13988264_mitchell_field.json",
      "total_checklists": 24,
      "coordinates": {
        "latitude": 42.286491,
        "longitude": -83.721352
      }
    },
    {
      "locality_id": "L27837141",
      "name": "Juniper Hill",
      "file": "hotspots/L27837141_juniper_hill.json",
      "total_checklists": 24,
      "coordinates": {
        "latitude": 42.1798787,
        "longitude": -83.9961328
      }
    },
    {
      "locality_id": "L321171",
      "name": "Waterloo RA--Green Lake Wetlands",
      "file": "hotspots/L321171_waterloo_ra_green_lake_wetlands.json",
      "total_checklists": 22,
      "coordinates": {
        "latitude": 42.372941,
        "longitude": -84.0830217
      }
    },
    {
      "locality_id": "L5862823",
      "name": "North Lake",
      "file": "hotspots/L5862823_north_lake.json",
      "total_checklists": 22,
      "coordinates": {
        "latitude": 42.3961743,
        "longitude": -83.9968617
      }
    },
    {
      "locality_id": "L26692406",
      "name": "Ford Lake Wetland Complex",
      "file": "hotspots/L26692406_ford_lake_wetland_complex.json",
      "total_checklists": 21,
      "coordinates": {
        "latitude": 42.2029631,
        "longitude": -83.5748062
      }
    },
    {
      "locality_id": "L12788185",
      "name": "Dexter Business & Research Park pond",
      "file": "hotspots/L12788185_dexter_business_research_park_pond.json",
      "total_checklists": 20,
      "coordinates": {
        "latitude": 42.3259636,
        "longitude": -83.8782799
      }
    },
    {
      "locality_id": "L24140552",
      "name": "Beach Road wetland",
      "file": "hotspots/L24140552_beach_road_wetland.json",
      "total_checklists": 17,
      "coordinates": {
        "latitude": 42.3368006,
        "longitude": -83.9546368
      }
    },
    {
      "locality_id": "L28539979",
      "name": "Crescent Hill",
      "file": "hotspots/L28539979_crescent_hill.json",
      "total_checklists": 17,
      "coordinates": {
        "latitude": 42.410986,
        "longitude": -84.02721
      }
    },
    {
      "locality_id": "L1511045",
      "name": "Grass Lake Sanctuary",
      "file": "hotspots/L1511045_grass_lake_sanctuary.json",
      "total_checklists": 16,
      "coordinates": {
        "latitude": 42.2354632,
        "longitude": -84.0641227
      }
    },
    {
      "locality_id": "L29069666",
      "name": "Waterloo RA\u2014Loveland Rd. Juniper Fields",
      "file": "hotspots/L29069666_waterloo_ra_loveland_rd_juniper_fields.json",
      "total_checklists": 15,
      "coordinates": {
        "latitude": 42.317713,
        "longitude": -84.130948
      }
    },
    {
      "locality_id": "L9308015",
      "name": "Springhill Nature Preserve",
      "file": "hotspots/L9308015_springhill_nature_preserve.json",
      "total_checklists": 15,
      "coordinates": {
        "latitude": 42.3123636,
        "longitude": -83.5901615
      }
    },
    {
      "locality_id": "L11808816",
      "name": "Woolley Park",
      "file": "hotspots/L11808816_woolley_park.json",
      "total_checklists": 15,
      "coordinates": {
        "latitude": 42.198913,
        "longitude": -83.747957
      }
    },
    {
      "locality_id": "L15332743",
      "name": "Lloyd and Mabel Johnson Preserve",
      "file": "hotspots/L15332743_lloyd_and_mabel_johnson_preserve.json",
      "total_checklists": 15,
      "coordinates": {
        "latitude": 42.2217029,
        "longitude": -83.6987934
      }
    },
    {
      "locality_id": "L5068170",
      "name": "Forest Hill Cemetery ",
      "file": "hotspots/L5068170_forest_hill_cemetery.json",
      "total_checklists": 15,
      "coordinates": {
        "latitude": 42.278324,
        "longitude": -83.72906
      }
    },
    {
      "locality_id": "L17395548",
      "name": "Cranbrook Park",
      "file": "hotspots/L17395548_cranbrook_park.json",
      "total_checklists": 14,
      "coordinates": {
        "latitude": 42.2490333,
        "longitude": -83.7535093
      }
    },
    {
      "locality_id": "L21101267",
      "name": "Berkshire Creek Nature Area",
      "file": "hotspots/L21101267_berkshire_creek_nature_area.json",
      "total_checklists": 14,
      "coordinates": {
        "latitude": 42.2592184,
        "longitude": -83.6993803
      }
    },
    {
      "locality_id": "L11932941",
      "name": "Gleaner Hall Rd. marsh",
      "file": "hotspots/L11932941_gleaner_hall_rd_marsh.json",
      "total_checklists": 12,
      "coordinates": {
        "latitude": 42.33784,
        "longitude": -83.73274
      }
    },
    {
      "locality_id": "L16577140",
      "name": "Scheffler Park",
      "file": "hotspots/L16577140_scheffler_park.json",
      "total_checklists": 12,
      "coordinates": {
        "latitude": 42.2515856,
        "longitude": -83.6992416
      }
    },
    {
      "locality_id": "L36995361",
      "name": "Ward Park",
      "file": "hotspots/L36995361_ward_park.json",
      "total_checklists": 12,
      "coordinates": {
        "latitude": 42.2476763,
        "longitude": -83.7460143
      }
    },
    {
      "locality_id": "L28869950",
      "name": "Sandra Richardson Park",
      "file": "hotspots/L28869950_sandra_richardson_park.json",
      "total_checklists": 12,
      "coordinates": {
        "latitude": 42.150537,
        "longitude": -83.696111
      }
    },
    {
      "locality_id": "L11468219",
      "name": "Arkona Rd. fluddle",
      "file": "hotspots/L11468219_arkona_rd_fluddle.json",
      "total_checklists": 11,
      "coordinates": {
        "latitude": 42.095339,
        "longitude": -83.879294
      }
    },
    {
      "locality_id": "L2217777",
      "name": "Huron River--Delhi Rapids to Tubbs Rd. Bridge",
      "file": "hotspots/L2217777_huron_river_delhi_rapids_to_tubbs_rd_bridge.json",
      "total_checklists": 11,
      "coordinates": {
        "latitude": 42.3220476,
        "longitude": -83.8080025
      }
    },
    {
      "locality_id": "L15904734",
      "name": "Prairie Park",
      "file": "hotspots/L15904734_prairie_park.json",
      "total_checklists": 11,
      "coordinates": {
        "latitude": 42.197385,
        "longitude": -83.700454
      }
    },
    {
      "locality_id": "L5948371",
      "name": "Robin Hills Farm",
      "file": "hotspots/L5948371_robin_hills_farm.json",
      "total_checklists": 11,
      "coordinates": {
        "latitude": 42.3374014,
        "longitude": -84.0213874
      }
    },
    {
      "locality_id": "L24541058",
      "name": "Woodland Preserve",
      "file": "hotspots/L24541058_woodland_preserve.json",
      "total_checklists": 11,
      "coordinates": {
        "latitude": 42.3465187,
        "longitude": -83.8066252
      }
    },
    {
      "locality_id": "L30113136",
      "name": "Wild Goose Lake",
      "file": "hotspots/L30113136_wild_goose_lake.json",
      "total_checklists": 11,
      "coordinates": {
        "latitude": 42.396837,
        "longitude": -84.0235356
      }
    },
    {
      "locality_id": "L20503683",
      "name": "Whitmore Lake Preserve--Spencer Fields",
      "file": "hotspots/L20503683_whitmore_lake_preserve_spencer_fields.json",
      "total_checklists": 10,
      "coordinates": {
        "latitude": 42.4262703,
        "longitude": -83.7292025
      }
    },
    {
      "locality_id": "L21635388",
      "name": "Alban Cemetery",
      "file": "hotspots/L21635388_alban_cemetery.json",
      "total_checklists": 9,
      "coordinates": {
        "latitude": 42.174523,
        "longitude": -83.585635
      }
    },
    {
      "locality_id": "L15480584",
      "name": "White Oak Park",
      "file": "hotspots/L15480584_white_oak_park.json",
      "total_checklists": 8,
      "coordinates": {
        "latitude": 42.3107892,
        "longitude": -83.7715937
      }
    },
    {
      "locality_id": "L4402906",
      "name": "Sharon Hollow Rd. pond",
      "file": "hotspots/L4402906_sharon_hollow_rd_pond.json",
      "total_checklists": 8,
      "coordinates": {
        "latitude": 42.2268013,
        "longitude": -84.095149
      }
    },
    {
      "locality_id": "L20409474",
      "name": "White Lotus Farm",
      "file": "hotspots/L20409474_white_lotus_farm.json",
      "total_checklists": 8,
      "coordinates": {
        "latitude": 42.267351,
        "longitude": -83.871159
      }
    },
    {
      "locality_id": "L24081215",
      "name": "Tuebingen Park",
      "file": "hotspots/L24081215_tuebingen_park.json",
      "total_checklists": 8,
      "coordinates": {
        "latitude": 42.3090418,
        "longitude": -83.7186581
      }
    },
    {
      "locality_id": "L28604662",
      "name": "Boyce Lake",
      "file": "hotspots/L28604662_boyce_lake.json",
      "total_checklists": 7,
      "coordinates": {
        "latitude": 42.408416,
        "longitude": -84.102352
      }
    },
    {
      "locality_id": "L2151624",
      "name": "Tefft Park",
      "file": "hotspots/L2151624_tefft_park.json",
      "total_checklists": 6,
      "coordinates": {
        "latitude": 42.1972405,
        "longitude": -83.7664604
      }
    },
    {
      "locality_id": "L6465662",
      "name": "North Prospect Park",
      "file": "hotspots/L6465662_north_prospect_park.json",
      "total_checklists": 5,
      "coordinates": {
        "latitude": 42.3239287,
        "longitude": -83.6070353
      }
    },
    {
      "locality_id": "L30060968",
      "name": "Grass Lake Rd. wetlands",
      "file": "hotspots/L30060968_grass_lake_rd_wetlands.json",
      "total_checklists": 5,
      "coordinates": {
        "latitude": 42.239634,
        "longitude": -84.102518
      }
    },
    {
      "locality_id": "L35186133",
      "name": "Ypsilanti District Library-Superior",
      "file": "hotspots/L35186133_ypsilanti_district_library_superior.json",
      "total_checklists": 5,
      "coordinates": {
        "latitude": 42.2734395,
        "longitude": -83.5824544
      }
    },
    {
      "locality_id": "L28817936",
      "name": "Waterloo RA--Sugarloaf Lake Campground",
      "file": "hotspots/L28817936_waterloo_ra_sugarloaf_lake_campground.json",
      "total_checklists": 4,
      "coordinates": {
        "latitude": 42.342878,
        "longitude": -84.1205116
      }
    },
    {
      "locality_id": "L48562004",
      "name": "Iron Creek Nature Preserve",
      "file": "hotspots/L48562004_iron_creek_nature_preserve.json",
      "total_checklists": 4,
      "coordinates": {
        "latitude": 42.096174,
        "longitude": -84.112293
      }
    },
    {
      "locality_id": "L12905246",
      "name": "Millpointe Park",
      "file": "hotspots/L12905246_millpointe_park.json",
      "total_checklists": 3,
      "coordinates": {
        "latitude": 42.180696,
        "longitude": -83.6138583
      }
    },
    {
      "locality_id": "L43632293",
      "name": "Sharon Valley Rd and River Raisin Fellows' Bridge",
      "file": "hotspots/L43632293_sharon_valley_rd_and_river_raisin_fellows_bridge.json",
      "total_checklists": 3,
      "coordinates": {
        "latitude": 42.1684075,
        "longitude": -84.0757127
      }
    },
    {
      "locality_id": "L28073819",
      "name": "University of Michigan Golf Course",
      "file": "hotspots/L28073819_university_of_michigan_golf_course.json",
      "total_checklists": 2,
      "coordinates": {
        "latitude": 42.259628,
        "longitude": -83.7450015
      }
    }
  ]
}