[
  {
    "locId": "L32490441",
    "name": "Alger Rest Area 625",
    "lat": 44.111805,
    "lng": -84.121,
    "numSpecies": 23,
    "latestObs": "2026-03-24 11:43",
    "knowledge": null
  },
  {
    "locId": "L1625473",
    "name": "Au Gres Delta Nature Preserve",
    "lat": 44.0262738,
    "lng": -83.6884593,
    "numSpecies": 94,
    "latestObs": "2024-10-08 08:46",
    "knowledge": null
  },
  {
    "locId": "L682751",
    "name": "Au Gres River Mouth",
    "lat": 44.0268901,
    "lng": -83.6801147,
    "numSpecies": 207,
    "latestObs": "2026-03-23 13:47",
    "knowledge": null
  },
  {
    "locId": "L11907014",
    "name": "Au Gres WWTP",
    "lat": 44.037297,
    "lng": -83.697172,
    "numSpecies": 102,
    "latestObs": "2026-02-01 12:21",
    "knowledge": null
  },
  {
    "locId": "L1171384",
    "name": "Au Sable SF--Big Creek Rd.",
    "lat": 44.0206953,
    "lng": -83.7557638,
    "numSpecies": 173,
    "latestObs": "2025-06-12 09:47",
    "knowledge": null
  },
  {
    "locId": "L6291447",
    "name": "Charity Island",
    "lat": 44.031389,
    "lng": -83.435556,
    "numSpecies": 133,
    "latestObs": "2025-08-14 08:21",
    "knowledge": null
  },
  {
    "locId": "L2061023",
    "name": "Forest Lake",
    "lat": 44.1256418,
    "lng": -84.0689492,
    "numSpecies": 68,
    "latestObs": "2026-04-01 15:53",
    "knowledge": null
  },
  {
    "locId": "L18687316",
    "name": "Gordon Rd. terminus",
    "lat": 44.013333,
    "lng": -83.684859,
    "numSpecies": 30,
    "latestObs": "2025-05-24 15:57",
    "knowledge": null
  },
  {
    "locId": "L11131093",
    "name": "Manor Rd. fields",
    "lat": 44.0266516,
    "lng": -83.7007961,
    "numSpecies": 174,
    "latestObs": "2025-05-27 09:40",
    "knowledge": null
  },
  {
    "locId": "L1649618",
    "name": "Noggle Rd. grassland",
    "lat": 44.0519105,
    "lng": -83.7550907,
    "numSpecies": 135,
    "latestObs": "2026-02-21 12:41",
    "knowledge": null
  },
  {
    "locId": "L939996",
    "name": "Northpoint Marina",
    "lat": 44.0491336,
    "lng": -83.6569405,
    "numSpecies": 99,
    "latestObs": "2025-09-27 17:15",
    "knowledge": null
  },
  {
    "locId": "L15002168",
    "name": "Omer Roadside Park",
    "lat": 44.037946,
    "lng": -83.876072,
    "numSpecies": 30,
    "latestObs": "2025-08-14 13:48",
    "knowledge": null
  },
  {
    "locId": "L12007703",
    "name": "Palmer Rd. flooding",
    "lat": 43.968562,
    "lng": -83.883358,
    "numSpecies": 82,
    "latestObs": "2024-03-01 10:47",
    "knowledge": null
  },
  {
    "locId": "L1873261",
    "name": "Pressprich Nature Preserve",
    "lat": 44.0458441,
    "lng": -83.665634,
    "numSpecies": 87,
    "latestObs": "2025-05-02 16:28",
    "knowledge": null
  },
  {
    "locId": "L11130595",
    "name": "Rifle River--Omer public access",
    "lat": 44.044458,
    "lng": -83.855428,
    "numSpecies": 69,
    "latestObs": "2025-05-19 17:20",
    "knowledge": null
  },
  {
    "locId": "L1873272",
    "name": "Saganing Nature Preserve",
    "lat": 43.9248604,
    "lng": -83.9048378,
    "numSpecies": 135,
    "latestObs": "2025-07-09 20:01",
    "knowledge": null
  },
  {
    "locId": "L11474852",
    "name": "Sagatoo Rd. flooding/terminus",
    "lat": 43.9540397,
    "lng": -83.8820975,
    "numSpecies": 111,
    "latestObs": "2026-03-31 14:41",
    "knowledge": null
  },
  {
    "locId": "L1219283",
    "name": "Santiago Rd. boardwalk",
    "lat": 43.9992052,
    "lng": -83.7062287,
    "numSpecies": 196,
    "latestObs": "2026-03-30 19:49",
    "knowledge": null
  },
  {
    "locId": "L9203378",
    "name": "Singing Bridge Park",
    "lat": 44.1431674,
    "lng": -83.5680574,
    "numSpecies": 79,
    "latestObs": "2026-03-19 18:43",
    "knowledge": null
  },
  {
    "locId": "L1873273",
    "name": "Standish Nature Preserve",
    "lat": 43.9378256,
    "lng": -83.8902359,
    "numSpecies": 143,
    "latestObs": "2025-08-31 16:33",
    "knowledge": null
  },
  {
    "locId": "L33404439",
    "name": "Standish Roadside Park",
    "lat": 43.9157641,
    "lng": -83.9668603,
    "numSpecies": 27,
    "latestObs": "2025-08-14 13:29",
    "knowledge": null
  },
  {
    "locId": "L19450248",
    "name": "Standish Sewage Ponds",
    "lat": 43.988095,
    "lng": -83.926409,
    "numSpecies": 83,
    "latestObs": "2026-03-27 12:11",
    "knowledge": null
  },
  {
    "locId": "L11922229",
    "name": "Sterling Sewage Lagoons",
    "lat": 44.031324,
    "lng": -84.0055022,
    "numSpecies": 37,
    "latestObs": "2026-01-04 11:40",
    "knowledge": null
  },
  {
    "locId": "L8952827",
    "name": "Whites Beach",
    "lat": 43.928682,
    "lng": -83.8907008,
    "numSpecies": 86,
    "latestObs": "2025-08-27 08:30",
    "knowledge": null
  },
  {
    "locId": "L590367",
    "name": "Wigwam Bay SWA--Palmer Rd. unit",
    "lat": 43.9690218,
    "lng": -83.859859,
    "numSpecies": 184,
    "latestObs": "2026-03-27 10:38",
    "knowledge": null
  },
  {
    "locId": "L4621873",
    "name": "Wigwam Bay SWA--diked unit",
    "lat": 43.994069,
    "lng": -83.771167,
    "numSpecies": 196,
    "latestObs": "2025-12-21 16:02",
    "knowledge": null
  },
  {
    "locId": "L20194341",
    "name": "Wigwam Rd. boat launch",
    "lat": 43.976385,
    "lng": -83.857199,
    "numSpecies": 163,
    "latestObs": "2025-09-08 17:50",
    "knowledge": null
  },
  {
    "locId": "L18684497",
    "name": "Youngman Park",
    "lat": 43.998311,
    "lng": -83.868452,
    "numSpecies": 64,
    "latestObs": "2025-08-17 13:22",
    "knowledge": null
  }
]